SITE ID,SITE NAME,SUB REGION,CLASSIFICATION,CLASS,CONTRACTOR,REGIONAL SUPERVISOR,SDM,Lat,Long,Other remarks,
605001,BMK_Katwe,Kampala West ,Urban,B,Camusat,Christopher Alituha,Faridah Nantege,0.300175,32.57678,,
606289,Aduu,Lira ,Rural,B,I-Engineering,Muhamood Kyongo,Allan Kavuma,2.430573333,32.95296167,,
606111,Konge,Kampala South ,Urban,B,Netis,Salim Kinene,William Bwire,0.268336667,32.60597667,,
605002,BugolobiRadioStation,Kampala South ,Urban,B,Netis,Salim Kinene,William Bwire,0.3145667,32.6220733,,
605003,Observatory,Kampala North,Urban,A,I-Engineering,Joash Lubwama,Allan Kavuma,0.33876838,32.56501424,,
606147,Banda Maanyi,Mityana ,Urban,C,Camusat,M Patrick Kalibbala,Faridah Nantege,0.2558098,31.972989,,
606257,Itangula,Lira ,Rural,B,I-Engineering,Muhamood Kyongo,Allan Kavuma,2.2792172,32.81360059,,
606262,Lira Aloi road,Lira ,Rural,B,I-Engineering,Muhamood Kyongo,Allan Kavuma,2.238643333,32.97365167,,
606291,Kagoma 2/Maganjo,Kampala North,Urban,B,I-Engineering,Joash Lubwama,Allan Kavuma,0.39301088,32.54531398,,
606287,Bugabo,Kampala West ,Urban,B,Camusat,Christopher Alituha,Faridah Nantege,0.08997,32.54290667,,
606252,Mpoma,Mukono ,Urban,B,Netis,Samuel Naseke,William Bwire,0.4472567,32.7532383,,
606283,Kyassuma,Masaka ,Urban,C,Camusat,M Patrick Kalibbala,Faridah Nantege,-0.3819267,31.7534967,,
606273,Mpumudde,Mukono ,Urban,C,Netis,Emmanuel Kafuko,William Bwire,0.46408,33.21722,,
606294,Kazinga 2 ( Seroma_Mukono),Mukono ,Urban,B,Netis,Samuel Naseke,William Bwire,0.311896667,32.769675,,
606278,Balintuma Rd,Mityana ,Urban,B,Camusat,Christopher Alituha,Faridah Nantege,0.31279122,32.55701475,,
606288,Bwaise Quality,Kampala North,Urban,B,I-Engineering,Joash Lubwama,Allan Kavuma,0.35247433,32.55780419,,
606275,Nabiswa Road Kiwatule,Luwero ,Urban,B,Netis,Benbridge Mulongo,William Bwire,0.3704767,32.6239717,,
606272,Kawempe Police ,Kampala North,Urban,B,I-Engineering,Joash Lubwama,Allan Kavuma,0.35888224,32.56181567,,
606290,Nsumbi/Kibumbiro,Mityana ,Urban,B,Camusat,Christopher Alituha,Faridah Nantege,0.35337257,32.52019908,,
606258,Patuda,Gulu ,Rural,C,I-Engineering,Moses Kaganda,Allan Kavuma,2.7470465,32.2686673,,
606325,Rwenzori Towers,Kampala East  ,Urban,B,Netis,Salim Kinene,William Bwire,0.3174,32.579525,,
606284,Mbale Quality/Wanyala Cell,Mbale  ,Rural,B,Netis,Jude Musana,William Bwire,1.071068333,34.16672833,,
606281,Kabowa Quality,Kampala West ,Urban,B,Camusat,Christopher Alituha,Faridah Nantege,0.287958333,32.56270167,,
606298,Apoki/Cegere,Lira ,Rural,C,I-Engineering,Muhamood Kyongo,Allan Kavuma,2.0580928,32.5158091,,
606261,kalong,Kabale  ,Urban,B,Camusat,Denis Masaba,Faridah Nantege,-0.6145411,30.0478519,,
606295,Kanti Mansions,Kampala East  ,Urban,B,Netis,Benbridge Mulongo,William Bwire,0.33964,32.58717167,,
606125,Arua Park 2,Kampala North,Urban,B,I-Engineering,Joash Lubwama,Allan Kavuma,0.3149554,32.57500147,,
606293,Mbale_College,Mbale  ,Rural,C,Netis,Jude Musana,William Bwire,1.093236667,34.19069167,,
606305,Salaama Rd,Kampala South ,Urban,A,Netis,Salim Kinene,William Bwire,0.25618,32.6002,,
606318,Nyenje,Mukono ,Urban,B,Netis,Samuel Naseke,William Bwire,0.4013317,32.7314897,,
606268,Namere Trading Centre,Kampala North,Urban,B,I-Engineering,Joash Lubwama,Allan Kavuma,0.40049281,32.5714509,,
606292,Masanafu,Mityana ,Urban,A,Camusat,Christopher Alituha,Faridah Nantege,0.32816608,32.53158783,,
606270,Kawempe-Kakungulu,Kampala North,Urban,B,I-Engineering,Joash Lubwama,Allan Kavuma,0.37299502,32.56806696,,
606299,Oumoo Akua,Arua  ,Rural,C,I-Engineering,Innocent Ayiko,Allan Kavuma,2.9683323,30.8803246,,
606322,Lagwelima/Orom,Gulu ,Rural,C,I-Engineering,Moses Kaganda,Allan Kavuma,3.40176607,33.46904511,,
606300,Kiwanga,Kampala East  ,Urban,B,Netis,Samuel Naseke,William Bwire,0.374004733,32.68946313,,
606297,Kakajjo Zone,Kampala East  ,Urban,B,Netis,Benbridge Mulongo,William Bwire,0.362908333,32.66687333,,
606312,Busibante Najjera,Luwero ,Urban,B,Netis,Benbridge Mulongo,William Bwire,0.3891678,32.6286612,,
606315,Tabongo,Jinja ,Rural,B,Netis,Jude Musana,William Bwire,0.512161667,34.07065833,,
606309,Bulindo,Luwero ,Urban,B,Netis,Benbridge Mulongo,William Bwire,0.426123333,32.64361,,
606306,Amagoro A,Mbale  ,Rural,C,Netis,Jude Musana,William Bwire,0.691053333,34.19841167,,
606304,Zambia_Zone Arua,Arua  ,Rural,B,I-Engineering,Innocent Ayiko,Allan Kavuma,3.01448853,30.93547021,,
606326,Bugujju_Mukono_UCU,Mukono ,Urban,B,Netis,Samuel Naseke,William Bwire,0.354218617,32.73795377,,
606260,Anai,Lira ,Rural,B,I-Engineering,Muhamood Kyongo,Allan Kavuma,2.2194527,32.8450383,,
606310,Budumba,Mbale  ,Rural,C,Netis,Jude Musana,William Bwire,0.823088333,33.82815,,
606316,Okouba,Mbale  ,Rural,B,Netis,Moses Wandera,William Bwire,1.4338257,34.05118155,,
605005,Kireka,Kampala South ,Urban,A,Netis,Salim Kinene,William Bwire,0.33618,32.64405167,,
605006,Kalinabiri,Kampala East  ,Urban,A,Netis,Benbridge Mulongo,William Bwire,0.3617267,32.614905,,
605007,Mutundwe,Kampala West ,Urban,A,Camusat,Christopher Alituha,Faridah Nantege,0.2833296,32.5323533,,
605008,Old Kampala,Kampala North,Urban,A,I-Engineering,Joash Lubwama,Allan Kavuma,0.316866,32.56885529,,
605009,Nakukuba,Kampala West ,Urban,B,Camusat,Christopher Alituha,Faridah Nantege,0.2335567,32.5606033,,
605385,Lolui,Jinja ,Rural,C,Netis,Emmanuel Kafuko,William Bwire,-0.124663333,33.70690167,,
605011,Katabi,Kampala West ,Urban,A,Camusat,Christopher Alituha,Faridah Nantege,0.083293333,32.477455,,
605012,Entebbe,Kampala West ,Urban,A,Camusat,Christopher Alituha,Faridah Nantege,0.052806667,32.46590333,,
605013,Mukono,Mukono ,Urban,A,Netis,Samuel Naseke,William Bwire,0.35027025,32.74429063,,
605014,Lugazi,Mukono ,Urban,A,Netis,Samuel Naseke,William Bwire,0.371958333,32.94619333,,
605015,Namanyonyi,Mukono ,Urban,A,Netis,Samuel Naseke,William Bwire,0.415946667,33.12505167,,
605016,Jinja Catholic,Mukono ,Urban,A,Netis,Emmanuel Kafuko,William Bwire,0.4511196,33.21310227,,
605017,Namafuma,Jinja ,Urban,A,Netis,Emmanuel Kafuko,William Bwire,0.528028333,33.35509667,,
605018,Kitgum_Mission,Gulu ,Rural,B,I-Engineering,Moses Kaganda,Allan Kavuma,3.308551667,32.891985,,
606099,Mbale,Mbale  ,Urban,B,Netis,Jude Musana,William Bwire,1.07146,34.18275833,,
605019,Mpigi,Kampala West ,Urban,A,Camusat,M Patrick Kalibbala,Faridah Nantege,0.21603,32.3314967,,
605020,Masaka_Sports,Masaka ,Urban,A,Camusat,M Patrick Kalibbala,Faridah Nantege,-0.33719269,31.73405105,,
605021,Mbarara Golf,Mbarara ,Urban,A,Camusat,Thomasi Seruyange,Faridah Nantege,-0.6072544,30.6612575,,
605022,Kihumuro,Kabale  ,Urban,A,Camusat,Denis Masaba,Faridah Nantege,-1.2793383,30.014195,,
605023,Bombo,Luwero ,Urban,A,I-Engineering,Robert Otim,Allan Kavuma,0.576223333,32.54406167,,
605024,Nabwigulu,Mukono ,Urban,C,Netis,Samuel Naseke,William Bwire,0.977546667,33.12333333,,
605025,Kasambira,Mukono ,Urban,B,Netis,Samuel Naseke,William Bwire,0.791385,33.16013167,,
605026,Mini Price,Kampala North,Urban,B,I-Engineering,Joash Lubwama,Allan Kavuma,0.31364968,32.57589309,,
605027,Shauliyako,Kampala North,Urban,B,I-Engineering,Joash Lubwama,Allan Kavuma,0.31560424,32.57315076,,
605029,Kihihi,Kabale  ,Urban,B,Camusat,Denis Masaba,Faridah Nantege,-0.745566667,29.69694833,,
605030,Ntenga,Mukono ,Urban,C,Netis,Samuel Naseke,William Bwire,0.35369,32.91280333,,
605031,Makonde,Kabale  ,Urban,B,Camusat,Denis Masaba,Faridah Nantege,-0.681401667,29.93357333,,
605032,Buddo,Kampala West ,Urban,B,Camusat,M Patrick Kalibbala,Faridah Nantege,0.258125,32.4895454,,
605033,Kyamabale,Masaka ,Urban,B,Camusat,M Patrick Kalibbala,Faridah Nantege,-0.3005567,31.6822633,,
605034,Bunanyiri,Mbale  ,Rural,C,Netis,Jude Musana,William Bwire,1.040675,34.34508333,,
605035,Bwaise_Central,Kampala North,Urban,B,I-Engineering,Joash Lubwama,Allan Kavuma,0.35355503,32.56416447,,
605037,Butende,Jinja ,Urban,C,Netis,Emmanuel Kafuko,William Bwire,0.61875675,33.57839542,,
605038,Bwijanga,Hoima  ,Rural,C,I-Engineering,Latima Musoke,Allan Kavuma,1.5130602,31.5480823,,
605039,Bugiri_Muyenga,Jinja ,Urban,C,Netis,Emmanuel Kafuko,William Bwire,0.570283333,33.739795,,
605040,Kaya,Arua  ,Rural,A,I-Engineering,Innocent Ayiko,Allan Kavuma,3.523311667,30.88526,,
605041,Kayanja,Mbarara ,Urban,C,Camusat,Thomasi Seruyange,Faridah Nantege,-0.4941224,30.9854955,,
605042,Godia,Arua  ,Rural,C,I-Engineering,Innocent Ayiko,Allan Kavuma,3.409941667,30.94749333,,
605043,Nkoni,Masaka ,Urban,A,Camusat,M Patrick Kalibbala,Faridah Nantege,-0.342816667,31.65383,,
605044,Tropical Complex,Kampala North,Urban,B,I-Engineering,Joash Lubwama,Allan Kavuma,0.317473,32.5740667,,
605045,Worker's House,Kampala East  ,Urban,B,Netis,Salim Kinene,William Bwire,0.313585,32.582575,,
605046,Zai Plaza,Kampala South ,Urban,B,Netis,Salim Kinene,William Bwire,0.312271667,32.578215,,
605047,Suam,Mbale  ,Rural,C,Netis,Jude Musana,William Bwire,1.22882,34.73773,,
605048,masindi MGW,Hoima  ,Rural,A,I-Engineering,Latima Musoke,Allan Kavuma,1.6919193,31.7252108,,
605049,Nimbwa,Luwero ,Urban,C,I-Engineering,Robert Otim,Allan Kavuma,0.646076667,32.531635,,
606106,Jacana,Mbarara ,Urban,C,Camusat,Denis Masaba,Faridah Nantege,-0.2885285,30.1036829,,
605050,busiika,Luwero ,Urban,C,Netis,Benbridge Mulongo,William Bwire,0.614083333,32.53278,,
605051,Garden_City,Kampala East  ,Urban,B,Netis,Benbridge Mulongo,William Bwire,0.319956667,32.591985,,
605053,Nakasero Complex,Kampala North,Urban,B,I-Engineering,Joash Lubwama,Allan Kavuma,0.313604,32.5752412,,
605054,Otuchopi,Soroti  ,Rural,A,Netis,Moses Wandera,William Bwire,1.74864445,33.61697593,,
605055,Energy Centre,Kampala South ,Urban,B,Netis,Salim Kinene,William Bwire,0.310988333,32.57865,,
605056,Buhamba,Hoima  ,Rural,C,Camusat,Stephen Rwabwogo,Faridah Nantege,1.565425,31.31550667,,
605057,Gateway_Bus_Terminal,Kampala North,Urban,B,I-Engineering,Joash Lubwama,Allan Kavuma,0.32245084,32.56936191,,
605058,Bugiri,Jinja ,Urban,A,Netis,Emmanuel Kafuko,William Bwire,0.554586667,33.76114,,
605059,Busia,Jinja ,Rural,A,Netis,Emmanuel Kafuko,William Bwire,0.481346667,34.08291333,,
606019,Kigorobya,Hoima  ,Rural,C,I-Engineering,Latima Musoke,Allan Kavuma,1.62227,31.30989167,,
605060,Martyrs University,Masaka ,Urban,A,Camusat,M Patrick Kalibbala,Faridah Nantege,0.006016967,32.01480903,,
605061,Eagles_Nest,Mityana ,Urban,B,Camusat,Christopher Alituha,Faridah Nantege,0.30371,32.566044,,
605062,Luwum,Kampala South ,Urban,A,Netis,Salim Kinene,William Bwire,0.312333333,32.57878167,,
605063,Ntinda_Shopping Cent,Kampala East  ,Urban,B,Netis,Benbridge Mulongo,William Bwire,0.35382,32.6118733,,
605064,UDB,Kampala East  ,Urban,A,Netis,Benbridge Mulongo,William Bwire,0.319338333,32.58807,,
605065,Noble Lodges,Kampala North,Urban,A,I-Engineering,Joash Lubwama,Allan Kavuma,0.31424004,32.5760822,,
605471,Koboko_Town,Arua  ,Rural,B,I-Engineering,Innocent Ayiko,Allan Kavuma,3.411388333,30.95929333,,
605066,Malaba,Mbale  ,Rural,A,Netis,Jude Musana,William Bwire,0.650313333,34.25287667,,
605067,Sagazi,Mukono ,Urban,C,Netis,Samuel Naseke,William Bwire,0.380355,32.97322167,,
605068,Soroti,Soroti  ,Rural,A,Netis,Moses Wandera,William Bwire,1.711651667,33.61480833,,
605069,Mbalala,Mukono ,Urban,B,Netis,Samuel Naseke,William Bwire,0.377675,32.80378333,,
605070,Kumi,Mbale  ,Rural,A,Netis,Moses Wandera,William Bwire,1.486095217,33.93865337,,
605071,Lugarambo,Mukono ,Urban,C,Netis,Samuel Naseke,William Bwire,0.410245,33.08270833,,
606021,Kyangwali,Hoima  ,Rural,C,I-Engineering,Latima Musoke,Allan Kavuma,1.228241667,30.82101167,,
605072,Bushenyi,Mbarara ,Urban,A,Camusat,Thomasi Seruyange,Faridah Nantege,-0.5420483,30.1867319,,
605073,Shoal,Kampala North,Urban,B,I-Engineering,Joash Lubwama,Allan Kavuma,0.31921804,32.57382588,,
605074,Baumann House,Kampala East  ,Urban,B,Netis,Salim Kinene,William Bwire,0.3149,32.58669667,,
605075,Kyebando,Luwero ,Urban,B,Netis,Benbridge Mulongo,William Bwire,0.35815,32.58076667,,
605076,Masindi,Hoima  ,Rural,A,I-Engineering,Latima Musoke,Allan Kavuma,1.6896241,31.7517479,,
605077,Nsangi,Kampala West ,Urban,A,Camusat,M Patrick Kalibbala,Faridah Nantege,0.27776703,32.45379455,,
606022,Biguri,Fort Portal   ,Urban,B,Camusat,Stephen Rwabwogo,Faridah Nantege,0.321265,30.78489167,,
606117,Nawampiti,Jinja ,Urban,C,Netis,Emmanuel Kafuko,William Bwire,0.661381667,33.28921333,,
606023,Wanseko,Hoima  ,Rural,C,I-Engineering,Latima Musoke,Allan Kavuma,2.177301667,31.38195,,
605078,Namataba,Mukono ,Urban,B,Netis,Samuel Naseke,William Bwire,0.378765,32.86028,,
605079,Kyazanga,Masaka ,Urban,B,Camusat,M Patrick Kalibbala,Faridah Nantege,-0.4033471,31.3375146,,
605080,Kawanda,Kampala North,Urban,A,I-Engineering,Joash Lubwama,Allan Kavuma,0.42415533,32.54314626,,
605955,Muhokya,Fort Portal   ,Urban,C,Camusat,Stephen Rwabwogo,Faridah Nantege,0.113258333,30.04203667,Site decommissioned,
605082,Luwero,Luwero ,Urban,A,I-Engineering,Robert Otim,Allan Kavuma,0.8411707,32.4928611,,
605083,Ntinda,Kampala East  ,Urban,B,Netis,Benbridge Mulongo,William Bwire,0.3453383,32.6182933,,
605084,AquaHouse,Kampala South ,Urban,B,Netis,Salim Kinene,William Bwire,0.293726667,32.60482833,,
605085,Bbuto,Kampala East  ,Urban,A,Netis,Benbridge Mulongo,William Bwire,0.370473167,32.67786952,,
605086,Crusader,Kampala East  ,Urban,B,Netis,Salim Kinene,William Bwire,0.31355,32.58325833,,
605087,BusegaCatholicChurch,Mityana ,Urban,B,Camusat,Christopher Alituha,Faridah Nantege,0.3065787,32.52521821,,
605088,Ssebagala,Kampala West ,Urban,B,Camusat,Christopher Alituha,Faridah Nantege,0.293256667,32.56350167,,
605089,Nalubwama,Kampala North,Urban,B,I-Engineering,Joash Lubwama,Allan Kavuma,0.310877778,32.57645556,,
606024,Kabuyanda,Kabale  ,Urban,C,Camusat,Denis Masaba,Faridah Nantege,-0.9525569,30.5919642,,
605091,Tororo,Mbale  ,Rural,A,Netis,Jude Musana,William Bwire,0.711868333,34.18445167,,
605092,Kako,Masaka ,Urban,A,Camusat,M Patrick Kalibbala,Faridah Nantege,-0.300602817,31.80651282,,
605093,Mulimira,Kampala East  ,Urban,B,Netis,Benbridge Mulongo,William Bwire,0.349833333,32.59020667,,
605094,Kalisizo,Masaka ,Urban,A,Camusat,M Patrick Kalibbala,Faridah Nantege,-0.5280801,31.61620382,,
606025,Kijunjubwa,Hoima  ,Rural,A,I-Engineering,Latima Musoke,Allan Kavuma,1.4807575,31.7848033,,
605095,Kinoni,Masaka ,Urban,A,Camusat,M Patrick Kalibbala,Faridah Nantege,-0.34884,31.554695,,
605096,Ndibulungi,Mityana ,Urban,A,Camusat,Patrick Kinyera,Faridah Nantege,0.3846633,32.0859483,,
605097,Rwagaaju,Mbarara ,Urban,A,Camusat,Thomasi Seruyange,Faridah Nantege,-0.5414317,30.7297317,,
605098,Lubya,Mityana ,Urban,A,Camusat,Christopher Alituha,Faridah Nantege,0.3302987,32.5455731,,
605099,Kayunga,Luwero ,Urban,A,Netis,Samuel Naseke,William Bwire,0.7046569,32.9024188,,
605100,Kamuli,Mukono ,Urban,A,Netis,Samuel Naseke,William Bwire,0.944046667,33.121355,,
605101,FortPortal900,Fort Portal   ,Urban,A,Camusat,Stephen Rwabwogo,Faridah Nantege,0.6472567,30.273545,,
605102,Kasese,Fort Portal   ,Urban,A,Camusat,Stephen Rwabwogo,Faridah Nantege,1.218479285,34.25188355,,
606026,Karungo,Mbarara ,Urban,C,Camusat,Thomasi Seruyange,Faridah Nantege,-0.3455983,30.4214317,,
605103,Hima,Fort Portal   ,Urban,A,Camusat,Stephen Rwabwogo,Faridah Nantege,1.218479285,34.25188355,,
606027,Dwaniro,Masaka ,Urban,C,Camusat,M Patrick Kalibbala,Faridah Nantege,-0.637581283,31.38564524,,
605104,Nakasongola,Kampala North,Rural,A,I-Engineering,Robert Otim,Allan Kavuma,1.38559473,32.50953833,,
605105,Owino,Mityana ,Urban,B,Camusat,Christopher Alituha,Faridah Nantege,0.30680444,32.57300073,,
606028,Kabunyata,Luwero ,Urban,C,I-Engineering,Robert Otim,Allan Kavuma,1.04917988,32.69512338,,
605106,Kyadondo,Kampala North,Urban,A,I-Engineering,Joash Lubwama,Allan Kavuma,0.37130045,32.56401513,,
605107,Paidha town,Arua  ,Rural,A,I-Engineering,Innocent Ayiko,Allan Kavuma,2.417287883,30.98500862,,
605108,Luzira,Kampala South ,Urban,A,Netis,Salim Kinene,William Bwire,0.301861667,32.64648333,,
605109,MwiriSchool,Jinja ,Urban,B,Netis,Emmanuel Kafuko,William Bwire,0.50024,33.27334333,,
606029,Kyarushesha,Hoima  ,Rural,C,I-Engineering,Latima Musoke,Allan Kavuma,1.320565,30.891675,,
605110,Kisoro,Kabale  ,Urban,A,Camusat,Denis Masaba,Faridah Nantege,-1.2852063,29.6915304,,
606030,Bugambe,Hoima  ,Rural,B,I-Engineering,Latima Musoke,Allan Kavuma,1.469513333,31.20419,,
605111,Salaama,Kampala South ,Urban,A,Netis,Salim Kinene,William Bwire,0.2442,32.62211167,,
606031,Ntunda,Hoima  ,Rural,C,Camusat,Stephen Rwabwogo,Faridah Nantege,1.257663333,31.52008667,,
605112,Lugogo,Kampala South ,Urban,A,Netis,Salim Kinene,William Bwire,0.3243517,32.6053,,
605113,Nateete,Mityana ,Urban,B,Camusat,Christopher Alituha,Faridah Nantege,0.3009752,32.5349866,,
605114,Bukoto,Kampala East  ,Urban,A,Netis,Benbridge Mulongo,William Bwire,0.3511672,32.59395,,
605116,Kasule Aisa,Kampala North,Urban,B,I-Engineering,Joash Lubwama,Allan Kavuma,0.33144457,32.57373582,,
606032,Bugomolwa,Hoima  ,Rural,C,Camusat,Patrick Kinyera,Faridah Nantege,0.966568333,31.66303167,,
605117,Mutara_House,Kampala West ,Urban,B,Camusat,Christopher Alituha,Faridah Nantege,0.288565,32.57059333,,
605118,Sembatya_Arcade,Kampala North,Urban,B,I-Engineering,Joash Lubwama,Allan Kavuma,0.31521416,32.57478914,,
605119,Tata,Kampala East  ,Urban,A,Netis,Salim Kinene,William Bwire,0.315903333,32.59224833,,
606033,Panyimur,Arua  ,Rural,C,I-Engineering,Innocent Ayiko,Allan Kavuma,2.301588333,31.326485,,
605121,Lira,Lira ,Rural,A,I-Engineering,Muhamood Kyongo,Allan Kavuma,2.23558299,32.90398797,,
606034,Kanyantorogo,Kabale  ,Urban,C,Camusat,Denis Masaba,Faridah Nantege,-0.826288333,29.70866667,,
605122,Mubende,Mityana ,Urban,A,Camusat,Patrick Kinyera,Faridah Nantege,0.5654517,31.381296,,
605123,Bunamwaaya,Kampala West ,Urban,B,Camusat,Christopher Alituha,Faridah Nantege,0.26344253,32.5605113,,
605124,Gulu,Gulu ,Rural,A,I-Engineering,Moses Kaganda,Allan Kavuma,2.7690314,32.3021646,,
605126,Bwaise,Kampala North,Urban,B,I-Engineering,Joash Lubwama,Allan Kavuma,0.35071983,32.563083,,
605127,Bweyogerere,Kampala East  ,Urban,A,Netis,Benbridge Mulongo,William Bwire,0.351918333,32.66039333,,
606035,Itula,Arua  ,Rural,C,I-Engineering,Innocent Ayiko,Allan Kavuma,3.505928333,31.643825,,
605128,Wobulenzi,Luwero ,Urban,A,I-Engineering,Robert Otim,Allan Kavuma,0.741953333,32.52943833,,
605129,Gayaza,Luwero ,Urban,A,Netis,Benbridge Mulongo,William Bwire,0.45604429,32.60974995,,
605130,Kyaliwajjala,Kampala East  ,Urban,A,Netis,Benbridge Mulongo,William Bwire,0.3765832,32.6459975,,
605131,Pakwach,Arua  ,Rural,A,I-Engineering,Innocent Ayiko,Allan Kavuma,2.46153,31.49194,,
605132,Nebbi,Arua  ,Rural,A,I-Engineering,Innocent Ayiko,Allan Kavuma,2.466328333,31.06593667,,
605133,Kyambogo,Kampala East  ,Urban,B,Netis,Benbridge Mulongo,William Bwire,0.341926667,32.62756,,
605134,Arua,Arua  ,Rural,A,I-Engineering,Innocent Ayiko,Allan Kavuma,3.010648333,30.91673833,,
605135,Hoima,Hoima  ,Rural,A,Camusat,Stephen Rwabwogo,Faridah Nantege,1.443391667,31.36987167,,
605136,Walukuba,Mukono ,Urban,B,Netis,Samuel Naseke,William Bwire,0.415501667,33.17516833,,
605137,BungaHill,Kampala South ,Urban,A,Netis,Salim Kinene,William Bwire,0.27412,32.62073667,,
605138,Kitintale,Kampala South ,Urban,B,Netis,Salim Kinene,William Bwire,0.3191051,32.63173,,
605139,Kiwuliriza,Kampala South ,Urban,B,Netis,Salim Kinene,William Bwire,0.308446667,32.609565,,
605140,Namirembe,Mityana ,Urban,B,Camusat,Christopher Alituha,Faridah Nantege,0.312763,32.561593,,
606036,Degeya,Hoima  ,Rural,C,Camusat,Patrick Kinyera,Faridah Nantege,0.856248333,31.7903,,
605141,Ambassador_House,Kampala North,Urban,A,I-Engineering,Joash Lubwama,Allan Kavuma,0.31709109,32.57565535,,
605142,Cargen,Kampala East  ,Urban,B,Netis,Salim Kinene,William Bwire,0.3125633,32.585435,,
605367,Lyantonde,Mbarara ,Urban,A,Camusat,Thomasi Seruyange,Faridah Nantege,-0.4440602,31.0695781,,
606037,Busana,Luwero ,Urban,C,Netis,Samuel Naseke,William Bwire,0.741836667,32.95626333,,
605143,Kisugu,Kampala South ,Urban,B,Netis,Salim Kinene,William Bwire,0.306171667,32.5992,,
605858,Kabasanda,Kampala West ,Urban,C,Camusat,M Patrick Kalibbala,Faridah Nantege,0.2662539,32.2155413,,
605144,Kitala,Kampala West ,Urban,A,Camusat,Christopher Alituha,Faridah Nantege,0.109133333,32.521085,,
605145,Nakawa,Kampala South ,Urban,A,Netis,Salim Kinene,William Bwire,0.3297217,32.616895,,
605146,Wabigalo,Kampala South ,Urban,A,Netis,Salim Kinene,William Bwire,0.314486667,32.599425,,
605147,Alliance,Kampala East  ,Urban,B,Netis,Salim Kinene,William Bwire,0.3138895,32.5855877,,
606038,Mirama Hills,Kabale  ,Urban,C,Camusat,Denis Masaba,Faridah Nantege,-1.0413802,30.4106919,,
605149,Apac,Lira ,Rural,A,I-Engineering,Muhamood Kyongo,Allan Kavuma,1.98476679,32.53176245,,
605150,Kashongati,Kabale  ,Urban,A,Camusat,Denis Masaba,Faridah Nantege,-1.16562,30.14169,,
605151,Rakai,Masaka ,Urban,A,Camusat,M Patrick Kalibbala,Faridah Nantege,-0.7052141,31.4083517,,
605152,Masaka_Technical,Masaka ,Urban,A,Camusat,M Patrick Kalibbala,Faridah Nantege,-0.320027183,31.74201397,,
605153,Pallisa,Mbale  ,Rural,B,Netis,Jude Musana,William Bwire,1.16840786,33.70864161,,
606039,Bukunda,Masaka ,Urban,C,Camusat,M Patrick Kalibbala,Faridah Nantege,-0.44164273,31.67091862,,
605154,Kapchorwa,Mbale  ,Rural,A,Netis,Jude Musana,William Bwire,1.400973333,34.44271667,,
605155,Nkoma,Mbale  ,Rural,A,Netis,Jude Musana,William Bwire,1.1005242,34.1698657,,
605157,Koboko,Arua  ,Rural,A,I-Engineering,Innocent Ayiko,Allan Kavuma,3.42744,30.95667167,,
605158,Bwenkoma,Mbarara ,Urban,A,Camusat,Thomasi Seruyange,Faridah Nantege,-0.643336667,30.59356667,,
605159,EntebbeAirport,Kampala West ,Urban,A,Camusat,Christopher Alituha,Faridah Nantege,0.044548333,32.44224667,,
605859,Pingire,Soroti  ,Rural,C,Netis,Moses Wandera,William Bwire,1.4485885,33.35165133,,
605160,Kalangala,Masaka ,Urban,A,Camusat,M Patrick Kalibbala,Faridah Nantege,-0.324633333,32.28501333,,
606040,Ndeeba Kinoni,Masaka ,Urban,B,Camusat,M Patrick Kalibbala,Faridah Nantege,-0.4340767,31.5208233,,
605161,Apex_House,Kampala East  ,Urban,A,Netis,Benbridge Mulongo,William Bwire,0.3551501,32.612837,,
606041,Mityaba,Masaka ,Urban,C,Camusat,M Patrick Kalibbala,Faridah Nantege,-0.30228,31.4579217,,
605162,Kisaasi,Luwero ,Urban,B,Netis,Benbridge Mulongo,William Bwire,0.371208333,32.59961333,,
606042,Pajule_Town,Gulu ,Rural,C,I-Engineering,Moses Kaganda,Allan Kavuma,2.9574065,32.9364808,,
605010,Dundu,Kampala West ,Urban,A,Camusat,Christopher Alituha,Faridah Nantege,0.1636267,32.5506517,,
605164,Mpererwe,Kampala North,Urban,A,I-Engineering,Joash Lubwama,Allan Kavuma,0.38552387,32.57471168,,
606043,Ndeese,Luwero ,Urban,C,Netis,Samuel Naseke,William Bwire,0.61851,32.797905,,
605165,Kazo,Kampala North,Urban,B,I-Engineering,Joash Lubwama,Allan Kavuma,0.35769573,32.55536946,,
605166,B.A.T_Arua,Arua  ,Rural,A,I-Engineering,Innocent Ayiko,Allan Kavuma,2.9944424,30.9029639,,
605167,Kisenyi,Mityana ,Urban,B,Camusat,Christopher Alituha,Faridah Nantege,0.30855977,32.56756833,,
605168,Tanganyika,Arua  ,Rural,B,I-Engineering,Innocent Ayiko,Allan Kavuma,3.0408033,30.9138233,,
605169,Kibuye,Kampala West ,Urban,B,Camusat,Christopher Alituha,Faridah Nantege,0.289348333,32.57640833,,
605170,LowerKololo,Kampala East  ,Urban,B,Netis,Benbridge Mulongo,William Bwire,0.332756667,32.585415,,
605171,Mulago,Kampala North,Urban,A,I-Engineering,Joash Lubwama,Allan Kavuma,0.3435933,32.5735983,,
605172,Adwoki,Lira ,Rural,C,I-Engineering,Muhamood Kyongo,Allan Kavuma,1.972296667,33.06277833,,
605173,Kawaala,Kampala North,Urban,B,I-Engineering,Joash Lubwama,Allan Kavuma,0.33339288,32.555725,,
606277,Buginyanya,Mbale  ,Rural,C,Netis,Jude Musana,William Bwire,1.269143333,34.36142,,
605174,Mawanda_Road,Kampala East  ,Urban,A,Netis,Benbridge Mulongo,William Bwire,0.339166667,32.58391333,,
605175,Duhaga,Hoima  ,Rural,A,I-Engineering,Latima Musoke,Allan Kavuma,1.43863,31.33996333,,
605176,Iganga Central,Jinja ,Urban,B,Netis,Emmanuel Kafuko,William Bwire,0.610631767,33.47538095,,
605886,Nebbi_town,Arua  ,Rural,B,I-Engineering,Innocent Ayiko,Allan Kavuma,2.479873333,31.08908667,,
605177,Kadic,Kampala East  ,Urban,B,Netis,Benbridge Mulongo,William Bwire,0.35041,32.603886,,
605178,Ntungamo,Kabale  ,Urban,A,Camusat,Denis Masaba,Faridah Nantege,-0.868237,30.2364402,,
605179,Kidepo,Gulu ,Rural,C,I-Engineering,Moses Kaganda,Allan Kavuma,3.61013009,33.70909191,,
605180,Rukungiri,Kabale  ,Urban,A,Camusat,Denis Masaba,Faridah Nantege,-0.7876434,29.9285072,,
605181,Lyded_Tower,Kampala North,Urban,B,I-Engineering,Joash Lubwama,Allan Kavuma,0.3455965,32.57147688,,
605182,Nansana,Mityana ,Urban,A,Camusat,Patrick Kinyera,Faridah Nantege,0.3683533,32.52218,,
606045,Oleba,Arua  ,Rural,A,I-Engineering,Innocent Ayiko,Allan Kavuma,3.298763333,30.92835333,,
605184,Biashara,Mukono ,Urban,B,Netis,Emmanuel Kafuko,William Bwire,0.42849825,33.20952872,,
605185,CollineHotel,Mukono ,Urban,B,Netis,Samuel Naseke,William Bwire,0.357935067,32.75424092,,
605186,Kanyanya,Luwero ,Urban,B,Netis,Benbridge Mulongo,William Bwire,0.375526667,32.58218833,,
605187,TelexBar,Kampala South ,Urban,A,Netis,Salim Kinene,William Bwire,0.298548333,32.60173333,,
605188,Kawaala_One,Mityana ,Urban,B,Camusat,Christopher Alituha,Faridah Nantege,0.34114982,32.55233046,,
605189,Oruha,Fort Portal   ,Urban,A,Camusat,Stephen Rwabwogo,Faridah Nantege,0.650855,30.51040167,,
605190,Njara Hill,Fort Portal   ,Urban,A,Camusat,Stephen Rwabwogo,Faridah Nantege,0.6676967,30.28915,,
605191,Radio West,Mbarara ,Urban,B,Camusat,Thomasi Seruyange,Faridah Nantege,-0.601448,30.66292565,,
605192,Buziga,Kampala South ,Urban,B,Netis,Salim Kinene,William Bwire,0.258336667,32.62176,,
605193,Kinaawa,Kampala West ,Urban,B,Camusat,Christopher Alituha,Faridah Nantege,0.2778887,32.5145443,,
605194,Isagara,Hoima  ,Rural,A,I-Engineering,Latima Musoke,Allan Kavuma,1.5945017,31.6036944,,
605195,Eliana Nateete,Kampala West ,Urban,B,Camusat,Christopher Alituha,Faridah Nantege,0.29680385,32.540324,,
605196,MisindyeHill,Mukono ,Urban,A,Netis,Samuel Naseke,William Bwire,0.352268333,33.02968667,,
605197,Bubaale,Masaka ,Urban,A,Camusat,M Patrick Kalibbala,Faridah Nantege,-0.172894167,31.8426691,,
606046,Kiyunga,Jinja ,Urban,B,Netis,Emmanuel Kafuko,William Bwire,0.765791667,33.32638333,,
605198,Kansanga,Kampala South ,Urban,B,Netis,Salim Kinene,William Bwire,0.282338333,32.603365,,
605199,Namasuba,Kampala West ,Urban,A,Camusat,Christopher Alituha,Faridah Nantege,0.26971,32.56772,,
605200,EastHighSchool,Luwero ,Urban,B,Netis,Benbridge Mulongo,William Bwire,0.37330594,32.6145538,,
605201,Kabowa,Kampala West ,Urban,A,Camusat,Christopher Alituha,Faridah Nantege,0.284056667,32.55745,,
605202,Lukuli,Kampala South ,Urban,A,Netis,Salim Kinene,William Bwire,0.28596,32.58626167,,
605203,Kiwatule,Kampala East  ,Urban,A,Netis,Benbridge Mulongo,William Bwire,0.3630882,32.6262717,,
605204,Lower_Konge,Kampala South ,Urban,B,Netis,Salim Kinene,William Bwire,0.274896667,32.60632,,
605205,GayazaRoad,Kampala North,Urban,B,I-Engineering,Joash Lubwama,Allan Kavuma,0.35968713,32.57455894,,
605211,Magejjo,Kampala West ,Urban,A,Camusat,M Patrick Kalibbala,Faridah Nantege,0.1719991,32.2295752,,
605207,Diplomat_Zone,Kampala South ,Urban,B,Netis,Salim Kinene,William Bwire,0.290931667,32.60803667,,
605208,Bukasa Kirinya,Kampala East  ,Urban,B,Netis,Benbridge Mulongo,William Bwire,0.316575,32.67625833,,
605209,Kagadi,Hoima  ,Urban,A,Camusat,Stephen Rwabwogo,Faridah Nantege,0.945943333,30.80644167,,
605210,Namuwongo,Kampala South ,Urban,B,Netis,Salim Kinene,William Bwire,0.313102,32.6062727,,
605212,Mugamba,Masaka ,Urban,A,Camusat,M Patrick Kalibbala,Faridah Nantege,-0.3552432,31.2783794,,
605213,Ibanda,Mbarara ,Urban,A,Camusat,Thomasi Seruyange,Faridah Nantege,-0.219057283,30.50443953,,
606047,Nyarutembe,Kabale  ,Urban,C,Camusat,Denis Masaba,Faridah Nantege,-1.1329834,29.6029216,,
605214,Kibiito,Fort Portal   ,Urban,B,Camusat,Stephen Rwabwogo,Faridah Nantege,0.467883333,30.19526167,,
606048,Muko,Kabale  ,Urban,C,Camusat,Denis Masaba,Faridah Nantege,-1.207653042,29.80755592,,
605215,Wakiso,Mityana ,Urban,A,Camusat,Patrick Kinyera,Faridah Nantege,0.40523,32.4793183,,
605216,Katuna,Kabale  ,Urban,A,Camusat,Denis Masaba,Faridah Nantege,-1.36077,29.9997583,,
605217,Nyabushozi,Mbarara ,Urban,A,Camusat,Thomasi Seruyange,Faridah Nantege,-0.1478233,30.9528667,,
606049,Kalagala,Luwero ,Urban,B,Netis,Samuel Naseke,William Bwire,0.606231667,32.60312167,,
605219,Ishaka,Mbarara ,Urban,A,Camusat,Denis Masaba,Faridah Nantege,-0.5532079,30.1390336,,
605218,Speke_Resort,Kampala South ,Urban,A,Netis,Salim Kinene,William Bwire,0.23823,32.62610333,,
606050,Nimule,Gulu ,Rural,A,I-Engineering,Moses Kaganda,Allan Kavuma,3.565036667,32.07013167,,
606051,Bisheshe,Mbarara ,Urban,B,Camusat,Thomasi Seruyange,Faridah Nantege,-0.0513,30.4936233,,
605220,Rugarama,Kabale  ,Urban,A,Camusat,Denis Masaba,Faridah Nantege,-1.238628333,29.98580333,,
605221,Bwizibwera,Mbarara ,Urban,B,Camusat,Thomasi Seruyange,Faridah Nantege,-0.467746667,30.56727667,,
605222,Nyendo Town,Masaka ,Urban,B,Camusat,M Patrick Kalibbala,Faridah Nantege,-0.32252583,31.75997092,,
605223,Mbirizi,Masaka ,Urban,B,Camusat,M Patrick Kalibbala,Faridah Nantege,-0.385474467,31.45483325,,
606052,Lulumbu,Mityana ,Urban,B,Camusat,Patrick Kinyera,Faridah Nantege,0.34188545,32.32919321,,
605224,Sembabule,Masaka ,Urban,A,Camusat,M Patrick Kalibbala,Faridah Nantege,-0.090581083,31.45616475,,
606053,Kavule_hill,Kampala North,Urban,B,I-Engineering,Robert Otim,Allan Kavuma,0.50705656,32.45970786,,
605225,Kyatoko,Mbarara ,Urban,C,Camusat,Thomasi Seruyange,Faridah Nantege,-0.3705778,30.5451203,,
605226,Nyerere Road,Kabale  ,Urban,C,Camusat,Denis Masaba,Faridah Nantege,-1.2520327,29.9849733,,
605227,Kakuto,Masaka ,Urban,A,Camusat,M Patrick Kalibbala,Faridah Nantege,-0.528172033,31.61653445,,
605229,Sanga,Mbarara ,Urban,A,Camusat,Thomasi Seruyange,Faridah Nantege,-0.4862495,30.8968579,,
605228,Namaganda,Kampala South ,Urban,B,Netis,Salim Kinene,William Bwire,0.312398333,32.57972167,,
606055,Nabilatuk,Soroti  ,Rural,C,Netis,Moses Wandera,William Bwire,2.075508333,34.593305,,
605230,Mbalwa1800,Kampala East  ,Urban,B,Netis,Benbridge Mulongo,William Bwire,0.3772117,32.664135,,
605231,Kibaale,Hoima  ,Urban,C,Camusat,Patrick Kinyera,Faridah Nantege,0.7779578,31.0804217,,
605232,Kasangalabi,Mukono ,Urban,B,Netis,Samuel Naseke,William Bwire,0.369655933,32.76286135,,
605233,Portbell,Kampala South ,Urban,B,Netis,Salim Kinene,William Bwire,0.294525,32.65509167,,
605234,Kabwohe,Mbarara ,Urban,A,Camusat,Thomasi Seruyange,Faridah Nantege,-0.5689129,30.3509731,,
605235,Rubirizi,Mbarara ,Urban,A,Camusat,Thomasi Seruyange,Faridah Nantege,-0.2471475,30.1097612,,
606056,Busolwe,Mbale  ,Rural,C,Netis,Jude Musana,William Bwire,0.840198333,33.92771667,,
605236,Kibwa,Mityana ,Urban,B,Camusat,Patrick Kinyera,Faridah Nantege,0.36830619,32.53974246,,
606112,Tilda West,Jinja ,Urban,C,Netis,Jude Musana,William Bwire,0.533293333,33.87525167,,
605238,St Josephs,Mbarara ,Urban,C,Camusat,Thomasi Seruyange,Faridah Nantege,-0.6273604,30.64504,,
605237,Kitubulu,Kampala West ,Urban,B,Camusat,Christopher Alituha,Faridah Nantege,0.094596667,32.49241167,,
605239,Bukedea,Mbale  ,Rural,A,Netis,Moses Wandera,William Bwire,1.346643583,34.04595322,,
605240,Buwalasi,Mbale  ,Rural,A,Netis,Jude Musana,William Bwire,1.183411667,34.237315,,
605861,Sumbwe,Mityana ,Urban,C,Camusat,Patrick Kinyera,Faridah Nantege,0.32081706,32.49130805,,
605242,Budaka,Mbale  ,Rural,A,Netis,Jude Musana,William Bwire,1.0167733,33.9622267,,
605241,Kabojja,Kampala West ,Urban,B,Camusat,Christopher Alituha,Faridah Nantege,0.29650599,32.51526352,,
605243,Busiu,Mbale  ,Rural,A,Netis,Jude Musana,William Bwire,0.92041,34.15301167,,
605244,Moyo_Town,Arua  ,Rural,A,I-Engineering,Innocent Ayiko,Allan Kavuma,3.655563333,31.72482167,,
605247,Mbale_SS,Mbale  ,Rural,A,Netis,Jude Musana,William Bwire,1.08109133,34.17197963,,
605245,Busembatia,Jinja ,Urban,A,Netis,Emmanuel Kafuko,William Bwire,0.77830605,33.62919023,,
605246,MityanaTown,Mityana ,Urban,B,Camusat,Patrick Kinyera,Faridah Nantege,0.4036531,32.0349277,,
605250,Buhoma,Kabale  ,Urban,C,Camusat,Denis Masaba,Faridah Nantege,-0.984105,29.61211,,
605248,Kiwuunya,Kampala North,Urban,B,I-Engineering,Joash Lubwama,Allan Kavuma,0.32853264,32.56029894,,
605249,KiraRoad,Kampala East  ,Urban,A,Netis,Benbridge Mulongo,William Bwire,0.35037,32.59889333,,
606093,Katuna Town,Kabale  ,Urban,B,Camusat,Denis Masaba,Faridah Nantege,-1.4208,30.01038,,
605251,Matugga,Kampala North,Urban,A,I-Engineering,Robert Otim,Allan Kavuma,0.45460838,32.52693361,,
605252,Gaba_Seminary,Kampala South ,Urban,A,Netis,Salim Kinene,William Bwire,0.263626667,32.62977,,
605253,Mafubira,Mukono ,Urban,B,Netis,Emmanuel Kafuko,William Bwire,0.488166667,33.22023167,,
605260,Arua_Rhino_Camp_Rd,Arua  ,Rural,A,I-Engineering,Innocent Ayiko,Allan Kavuma,3.023493333,30.91099833,,
605254,Mpigi Town,Kampala West ,Urban,C,Camusat,M Patrick Kalibbala,Faridah Nantege,0.2231286,32.3238168,,
605255,Abayita_Ababiri,Kampala West ,Urban,A,Camusat,Christopher Alituha,Faridah Nantege,0.094498333,32.50416,,
605256,Lumumba_Avenue,Kampala East  ,Urban,A,Netis,Benbridge Mulongo,William Bwire,0.322276667,32.579515,,
609628,Mengo Hill,Mityana ,Urban,B,Camusat,Christopher Alituha,Faridah Nantege,0.30478515,32.57448574,,
605258,Wandegeya_Road,Kampala East  ,Urban,B,Netis,Benbridge Mulongo,William Bwire,0.326501667,32.57621833,,
605259,Pride_Theatre,Mityana ,Urban,B,Camusat,Christopher Alituha,Faridah Nantege,0.31304631,32.56809663,,
605262,Yumbe,Arua  ,Rural,A,I-Engineering,Innocent Ayiko,Allan Kavuma,3.468786667,31.24709667,,
605261,MTNServiceCentre,Kampala South ,Urban,A,Netis,Salim Kinene,William Bwire,0.313338333,32.58078167,,
605264,Moyo,Arua  ,Rural,A,I-Engineering,Innocent Ayiko,Allan Kavuma,3.652101667,31.72811333,,
605263,Bakuli,Mityana ,Urban,B,Camusat,Christopher Alituha,Faridah Nantege,0.31592854,32.56150314,,
606057,Bugamba,Mbarara ,Urban,C,Camusat,Thomasi Seruyange,Faridah Nantege,-0.73104,30.51008167,,
606058,Savanna,Kabale  ,Urban,C,Camusat,Denis Masaba,Faridah Nantege,-0.709785,29.66640167,,
606059,Kinoni Kiruhura,Mbarara ,Urban,C,Camusat,Thomasi Seruyange,Faridah Nantege,-0.0783884,31.0589744,,
605265,Jinja-Market,Mukono ,Urban,C,Netis,Emmanuel Kafuko,William Bwire,0.4319468,33.2134672,,
605266,Kitawuluzi,Kampala West ,Urban,B,Camusat,Christopher Alituha,Faridah Nantege,0.291236667,32.53567667,,
605267,Naminya,Mukono ,Urban,B,Netis,Samuel Naseke,William Bwire,0.458436667,33.15229,,
605274,Paidha,Arua  ,Rural,A,I-Engineering,Innocent Ayiko,Allan Kavuma,2.398545,30.95622333,,
605268,Buwenge,Mukono ,Urban,A,Netis,Samuel Naseke,William Bwire,0.66576,33.16875667,,
605269,EagenHouse,Kampala South ,Urban,B,Netis,Salim Kinene,William Bwire,0.312258333,32.582975,,
605270,Jinja-GolfClub,Mukono ,Urban,B,Netis,Emmanuel Kafuko,William Bwire,0.421648333,33.20304833,,
605271,MbuyaHill,Kampala South ,Urban,B,Netis,Salim Kinene,William Bwire,0.32866,32.6245,,
605272,Nkokonjeru,Mukono ,Urban,A,Netis,Samuel Naseke,William Bwire,0.252158333,32.91458,,
605273,Kisoga,Mukono ,Urban,A,Netis,Samuel Naseke,William Bwire,0.236373333,32.81364667,,
605277,Kiboga,Hoima  ,Rural,B,Camusat,Patrick Kinyera,Faridah Nantege,0.915853333,31.77350167,,
605275,Kitebi,Kampala West ,Urban,B,Camusat,Christopher Alituha,Faridah Nantege,0.2820419,32.54787578,,
605276,Kahuna,Fort Portal   ,Urban,A,Camusat,Stephen Rwabwogo,Faridah Nantege,0.818255,30.38742833,,
606060,Bussi_Island,Kampala West ,Urban,B,Camusat,Christopher Alituha,Faridah Nantege,0.0432559,32.3209612,,
605279,Biko,Hoima  ,Rural,A,Camusat,Patrick Kinyera,Faridah Nantege,0.756631667,31.94163667,,
605278,Gogonya,Kampala South ,Urban,B,Netis,Salim Kinene,William Bwire,0.29284,32.59549667,,
605284,Adjumani,Gulu ,Rural,A,I-Engineering,Moses Kaganda,Allan Kavuma,3.380105,31.79115333,,
605280,Bulenga,Mityana ,Urban,C,Camusat,Patrick Kinyera,Faridah Nantege,0.3353999,32.5073184,,
605281,Kikandwa,Mityana ,Urban,B,Camusat,Patrick Kinyera,Faridah Nantege,0.30677875,32.55393052,,
605282,Nsambya_Central,Kampala South ,Urban,A,Netis,Salim Kinene,William Bwire,0.30317,32.58645167,,
605283,Namungoona_Flats,Mityana ,Urban,B,Camusat,Patrick Kinyera,Faridah Nantege,0.3383996,32.54241668,,
605285,Nakasongola _Town,Kampala North,Rural,A,I-Engineering,Robert Otim,Allan Kavuma,1.32145047,32.47754801,,
605286,Alanyi,Soroti  ,Rural,A,Netis,Moses Wandera,William Bwire,2.13123,33.26526167,,
605287,Omoro Hill,Gulu ,Rural,A,I-Engineering,Moses Kaganda,Allan Kavuma,2.60484814,32.44409071,,
605288,Laura,Arua  ,Rural,A,I-Engineering,Innocent Ayiko,Allan Kavuma,2.7976752,31.0178074,,
605295,Kirenzi,Kabale  ,Urban,A,Camusat,Denis Masaba,Faridah Nantege,-0.849635,29.722915,,
605289,Kasubi,Mityana ,Urban,B,Camusat,Christopher Alituha,Faridah Nantege,0.32922758,32.55063142,,
605290,UBC,Kampala East  ,Urban,B,Netis,Salim Kinene,William Bwire,0.316426667,32.58946833,,
605291,Lugoba,Kampala North,Urban,B,I-Engineering,Joash Lubwama,Allan Kavuma,0.37306206,32.54880493,,
605292,Busesa,Jinja ,Urban,A,Netis,Emmanuel Kafuko,William Bwire,0.62502815,33.6091718,,
605294,Lawsam,Kampala South ,Urban,B,Netis,Salim Kinene,William Bwire,0.3153,32.6084467,,
605303,Kambuga,Kabale  ,Urban,B,Camusat,Denis Masaba,Faridah Nantege,-0.829986667,29.79900167,,
605296,Kakiri,Mityana ,Urban,A,Camusat,Patrick Kinyera,Faridah Nantege,0.4007617,32.3978983,,
605862,KampalaClub,Kampala East  ,Urban,A,Netis,Benbridge Mulongo,William Bwire,0.319833333,32.58349,,
605299,Muswangali,Kampala South ,Urban,A,Netis,Salim Kinene,William Bwire,0.279368333,32.58139167,,
605300,Kira_Town,Luwero ,Urban,B,Netis,Benbridge Mulongo,William Bwire,0.40329,32.634885,,
605301,Mityana MKT,Mityana ,Urban,B,Camusat,Patrick Kinyera,Faridah Nantege,0.4015475,32.0460118,,
605302,Rwenzori_House,Kampala East  ,Urban,A,Netis,Salim Kinene,William Bwire,0.316801667,32.57925167,,
605304,LiraWhiteHouseA,Lira ,Rural,A,I-Engineering,Muhamood Kyongo,Allan Kavuma,2.242721667,32.8946,,
605306,UnifatPrimary,Gulu ,Rural,A,I-Engineering,Moses Kaganda,Allan Kavuma,2.776165,32.294675,,
605305,Naluvule,Mityana ,Urban,B,Camusat,Patrick Kinyera,Faridah Nantege,0.3879047,32.5071136,,
605307,Kyotera,Masaka ,Urban,A,Camusat,M Patrick Kalibbala,Faridah Nantege,-0.62674738,31.55104928,,
605309,Buwama,Masaka ,Urban,A,Camusat,M Patrick Kalibbala,Faridah Nantege,0.057219183,32.1140187,,
605308,ImperialRoyale,Kampala East  ,Urban,B,Netis,Benbridge Mulongo,William Bwire,0.318645,32.58579167,,
605312,Nakatunya,Soroti  ,Rural,C,Netis,Moses Wandera,William Bwire,1.722553333,33.602325,Site decommissioned,
605310,JevineHotel,Mityana ,Urban,B,Camusat,Christopher Alituha,Faridah Nantege,0.29736688,32.56002191,,
605311,Plot 31 Accacia,Kampala East  ,Urban,B,Netis,Benbridge Mulongo,William Bwire,0.33008,32.58676833,,
605313,Bwongyera,Kabale  ,Urban,A,Camusat,Denis Masaba,Faridah Nantege,-0.8304401,30.0669637,,
605316,Kitgum,Gulu ,Rural,A,I-Engineering,Moses Kaganda,Allan Kavuma,3.2898793,32.8792072,,
605314,Kazo_Central,Kampala North,Urban,B,I-Engineering,Joash Lubwama,Allan Kavuma,0.36551773,32.5529986,,
605315,Kirombe_Biina,Kampala South ,Urban,B,Netis,Salim Kinene,William Bwire,0.3096603,32.6470031,,
605317,Mutukula,Masaka ,Urban,A,Camusat,M Patrick Kalibbala,Faridah Nantege,-0.981552183,31.4117058,,
606062,Nalweyo Town,Hoima  ,Rural,C,Camusat,Patrick Kinyera,Faridah Nantege,1.127541667,31.27358333,,
605318,Bundibugyo,Fort Portal   ,Urban,A,Camusat,Stephen Rwabwogo,Faridah Nantege,0.678751667,30.06888333,,
605319,Bwera,Fort Portal   ,Urban,A,Camusat,Stephen Rwabwogo,Faridah Nantege,0.027598333,29.79727333,,
605320,Ngwedo,Hoima  ,Rural,B,I-Engineering,Latima Musoke,Allan Kavuma,2.154955,31.49097833,,
605326,Nagongera,Mbale  ,Rural,A,Netis,Jude Musana,William Bwire,0.769985,34.02367,,
605321,MulagoHospital,Kampala East  ,Urban,B,Netis,Benbridge Mulongo,William Bwire,0.338066667,32.57605167,,
605322,Lugogo_Stadium,Kampala East  ,Urban,B,Netis,Salim Kinene,William Bwire,0.3259888,32.6029142,,
605325,Kamwenge,Fort Portal   ,Urban,A,Camusat,Thomasi Seruyange,Faridah Nantege,0.174593333,30.45215,,
605333,Kiryandongo,Lira ,Rural,A,I-Engineering,Latima Musoke,Allan Kavuma,1.86480173,32.04768736,,
605327,Nakifuma,Luwero ,Urban,A,Netis,Samuel Naseke,William Bwire,0.5437983,32.788685,,
605328,Seeta,Kampala East  ,Urban,A,Netis,Samuel Naseke,William Bwire,0.352066183,32.7048612,,
605329,Zana,Kampala West ,Urban,B,Camusat,Christopher Alituha,Faridah Nantege,0.25550073,32.55944087,,
605330,Zirobwe,Luwero ,Urban,C,I-Engineering,Robert Otim,Allan Kavuma,0.676285,32.70406167,,
605860,Lubugumu,Kampala West ,Urban,B,Camusat,Christopher Alituha,Faridah Nantege,0.24105932,32.57738021,,
605332,Jeza,Mityana ,Urban,A,Camusat,Patrick Kinyera,Faridah Nantege,0.3861482,32.27405,,
605336,Buwayo,Jinja ,Rural,A,Netis,Jude Musana,William Bwire,0.536,33.950415,,
605999,Muk_medical_school,Kampala East  ,Urban,B,Netis,Benbridge Mulongo,William Bwire,0.339225,32.577135,,
605857,QualicellBusTerminal,Kampala North,Urban,B,I-Engineering,Joash Lubwama,Allan Kavuma,0.31326321,32.57439192,,
605334,EnergyCentre2,Kampala South ,Urban,B,Netis,Salim Kinene,William Bwire,0.311348333,32.57865,,
605335,Nalule,Kampala South ,Urban,B,Netis,Salim Kinene,William Bwire,0.310561667,32.57885667,,
605337,Bukomansimbi,Masaka ,Urban,C,Camusat,M Patrick Kalibbala,Faridah Nantege,-0.169070417,31.6231421,,
605338,Kotido,Soroti  ,Rural,A,Netis,Moses Wandera,William Bwire,3.010986667,34.11661,,
605339,Moroto,Soroti  ,Rural,A,Netis,Moses Wandera,William Bwire,2.528545,34.64506167,,
605346,Kyerima,Masaka ,Urban,B,Camusat,M Patrick Kalibbala,Faridah Nantege,0.1439614,32.0814931,,
605340,TransnileLink,Kampala North,Urban,B,I-Engineering,Joash Lubwama,Allan Kavuma,0.313535,32.5751843,,
605341,GazalandExtension,Kampala North,Urban,B,I-Engineering,Joash Lubwama,Allan Kavuma,0.3138278,32.57634933,,
605342,Capital Shoppers Nak,Kampala South ,Urban,B,Netis,Salim Kinene,William Bwire,0.3262885,32.6152947,,
605343,SuperiorComplex,Kampala North,Urban,B,I-Engineering,Joash Lubwama,Allan Kavuma,0.31610776,32.57514573,,
605344,NSSF,Kampala East  ,Urban,B,Netis,Salim Kinene,William Bwire,0.31461,32.58792333,,
605345,PrintersArcade,Kampala South ,Urban,B,Netis,Salim Kinene,William Bwire,0.31375,32.58440667,,
605348,Katakwi_Rock,Soroti  ,Rural,A,Netis,Moses Wandera,William Bwire,1.886485967,33.93211357,,
605347,Kaliro,Jinja ,Urban,A,Netis,Emmanuel Kafuko,William Bwire,0.913407283,33.49438815,,
605863,Ewanyapa,Arua  ,Rural,C,I-Engineering,Innocent Ayiko,Allan Kavuma,3.02147,30.90171167,,
605349,Ruzinga,Mbarara ,Urban,A,Camusat,Thomasi Seruyange,Faridah Nantege,-0.058545733,30.74999282,,
605354,Gulu_University,Gulu ,Rural,A,I-Engineering,Moses Kaganda,Allan Kavuma,2.786772,32.3165509,,
605350,Mbuya_MOD,Kampala South ,Urban,B,Netis,Salim Kinene,William Bwire,0.326438333,32.63041,,
605351,Ggaba_beach,Kampala South ,Urban,A,Netis,Salim Kinene,William Bwire,0.256641667,32.63276833,,
605352,First_Street,Kampala South ,Urban,B,Netis,Salim Kinene,William Bwire,0.32165,32.60046667,,
605353,Kyengera,Kampala West ,Urban,B,Camusat,M Patrick Kalibbala,Faridah Nantege,0.29723225,32.49556214,,
605355,Bihanga,Mbarara ,Urban,C,Camusat,Thomasi Seruyange,Faridah Nantege,0.0700217,30.6215417,,
605356,Kyamugorani,Mbarara ,Urban,C,Camusat,Thomasi Seruyange,Faridah Nantege,-0.584943333,30.65097167,,
605360,Kyotera Town,Masaka ,Urban,C,Camusat,M Patrick Kalibbala,Faridah Nantege,-0.630355915,31.54498422,,
605357,Makerere_LDC,Kampala North,Urban,B,I-Engineering,Joash Lubwama,Allan Kavuma,0.32600281,32.57000408,,
605358,Lubaga,Mityana ,Urban,A,Camusat,Christopher Alituha,Faridah Nantege,0.30243977,32.55285795,,
605359,Muyenga,Kampala South ,Urban,B,Netis,Salim Kinene,William Bwire,0.296496667,32.613455,,
605361,Kabwohe Town,Mbarara ,Urban,B,Camusat,Thomasi Seruyange,Faridah Nantege,-0.579613333,30.37739167,,
605908,Bulo,Masaka ,Urban,B,Camusat,M Patrick Kalibbala,Faridah Nantege,0.1358899,31.9785471,,
605362,SBPlaza,Kampala South ,Urban,B,Netis,Salim Kinene,William Bwire,0.312021667,32.57801833,,
605363,CityComplex,Kampala South ,Urban,B,Netis,Salim Kinene,William Bwire,0.311673333,32.578215,,
606107,Rushere,Mbarara ,Urban,B,Camusat,Thomasi Seruyange,Faridah Nantege,-0.207205,30.9350917,,
605365,NBH_Spares,Kampala West ,Urban,B,Camusat,Christopher Alituha,Faridah Nantege,0.3017842,32.5768066,,
606108,Lyantonde Town,Mbarara ,Urban,B,Camusat,Thomasi Seruyange,Faridah Nantege,-0.4079668,31.1532256,,
605368,Butiaba,Hoima  ,Rural,A,I-Engineering,Latima Musoke,Allan Kavuma,1.67448,31.32863833,,
606064,Wera,Soroti  ,Rural,B,Netis,Moses Wandera,William Bwire,1.866657117,33.76467758,,
605369,Katooke,Fort Portal   ,Urban,A,Camusat,Stephen Rwabwogo,Faridah Nantege,0.772793333,30.67743833,,
605370,Bihangire,Kabale  ,Urban,A,Camusat,Denis Masaba,Faridah Nantege,-1.0375053,29.8862197,,
605371,Migyera,Kampala North,Rural,A,I-Engineering,Robert Otim,Allan Kavuma,1.40786077,32.25940922,,
605372,Kakooge,Luwero ,Rural,A,I-Engineering,Robert Otim,Allan Kavuma,1.05386014,32.46735573,,
605373,Nakitooma,Lira ,Rural,A,I-Engineering,Latima Musoke,Allan Kavuma,1.50684525,32.09920889,,
605374,Aduku,Lira ,Rural,A,I-Engineering,Muhamood Kyongo,Allan Kavuma,1.99261435,32.71408296,,
605375,Otuboi,Soroti  ,Rural,A,Netis,Moses Wandera,William Bwire,1.924233333,33.31176167,,
605376,Lere,Lira ,Rural,A,I-Engineering,Latima Musoke,Allan Kavuma,2.0176693,32.14427675,,
605377,Dele,Lira ,Rural,A,I-Engineering,Muhamood Kyongo,Allan Kavuma,2.40050142,32.64925896,,
605380,Chobe_Lodge,Lira ,Urban,C,I-Engineering,Latima Musoke,Allan Kavuma,2.2430563,32.1376903,,
605331,Kajansi,Kampala West ,Urban,A,Camusat,Christopher Alituha,Faridah Nantege,0.19813,32.53433333,,
605378,Mukono_UCU_Street,Kampala East  ,Urban,B,Netis,Samuel Naseke,William Bwire,0.352404917,32.73974457,,
605379,Kakindu,Mityana ,Urban,C,Camusat,M Patrick Kalibbala,Faridah Nantege,0.3046739,32.1765413,,
605865,Nvara,Arua  ,Rural,B,I-Engineering,Innocent Ayiko,Allan Kavuma,3.01968583,30.92279502,,
605864,Bundibugyo Town,Fort Portal   ,Urban,C,Camusat,Stephen Rwabwogo,Faridah Nantege,0.711161,30.0632445,,
605382,Mpanga,Hoima  ,Rural,A,I-Engineering,Latima Musoke,Allan Kavuma,1.254411667,31.10483833,,
605381,MinistersVillage,Kampala East  ,Urban,B,Netis,Benbridge Mulongo,William Bwire,0.3543267,32.61964,,
605866,Bitereko,Kabale  ,Urban,C,Camusat,Denis Masaba,Faridah Nantege,-0.632471667,29.98335333,,
605867,Mawero_East,Jinja ,Rural,B,Netis,Jude Musana,William Bwire,0.469298333,34.09766167,,
605383,Mpumuru,Fort Portal   ,Urban,A,Camusat,Stephen Rwabwogo,Faridah Nantege,0.516695,30.300335,,
605384,Lumino,Jinja ,Rural,A,Netis,Emmanuel Kafuko,William Bwire,0.358408333,33.98826167,,
605868,Majanji_road,Jinja ,Rural,B,Netis,Emmanuel Kafuko,William Bwire,0.46285,34.08683667,,
605964,Bweya,Kampala West ,Urban,B,Camusat,Christopher Alituha,Faridah Nantege,0.186313333,32.55006833,,
605386,Mayuge,Jinja ,Urban,B,Netis,Emmanuel Kafuko,William Bwire,0.457783333,33.47763167,,
605388,Karuma,Lira ,Rural,A,I-Engineering,Latima Musoke,Allan Kavuma,2.24059311,32.25544879,,
605387,US_Embassy,Kampala South ,Urban,A,Netis,Salim Kinene,William Bwire,0.301458333,32.59244,,
605389,Rwashamaire,Kabale  ,Urban,B,Camusat,Denis Masaba,Faridah Nantege,-0.8259523,30.1206852,,
605871,Negri,Gulu ,Rural,C,I-Engineering,Moses Kaganda,Allan Kavuma,2.7835282,32.260961,,
605390,Nsambya_Sharing,Kampala South ,Urban,A,Netis,Salim Kinene,William Bwire,0.302411667,32.584025,,
605870,Jinja_Town,Mukono ,Urban,B,Netis,Emmanuel Kafuko,William Bwire,0.42813135,33.21397328,,
605873,Laibi_market,Gulu ,Rural,C,I-Engineering,Moses Kaganda,Allan Kavuma,2.7538939,32.3042927,,
605872,Bidco_Masese,Mukono ,Urban,C,Netis,Emmanuel Kafuko,William Bwire,0.445376667,33.23948,,
605876,Bwikya,Hoima  ,Rural,B,Camusat,Patrick Kinyera,Faridah Nantege,1.420306667,31.37533167,,
605874,Wanyanga,Luwero ,Urban,C,Netis,Samuel Naseke,William Bwire,0.700055,32.9255133,,
605391,Busunju,Hoima  ,Urban,A,Camusat,Patrick Kinyera,Faridah Nantege,0.5835582,32.2015149,,
605392,BugemaUniversity,Luwero ,Urban,A,Netis,Benbridge Mulongo,William Bwire,0.568465,32.65304167,,
605393,Rurwenga,Kabale  ,Urban,A,Camusat,Denis Masaba,Faridah Nantege,-0.7414333,30.3579526,,
605394,Lacor,Gulu ,Rural,A,I-Engineering,Moses Kaganda,Allan Kavuma,2.77556,32.22180167,,
605877,Bugumba,Jinja ,Urban,C,Netis,Emmanuel Kafuko,William Bwire,0.625649433,33.47714958,,
605395,Butooto,Mbale  ,Rural,A,Netis,Jude Musana,William Bwire,0.97357,34.345955,,
605396,Pader,Lira ,Rural,A,I-Engineering,Muhamood Kyongo,Allan Kavuma,2.8917899,33.0747919,,
605397,Kyamulibwa,Masaka ,Urban,C,Camusat,M Patrick Kalibbala,Faridah Nantege,-0.0805232,31.7612672,,
605398,Kitagata,Kabale  ,Urban,A,Camusat,Denis Masaba,Faridah Nantege,-0.6525718,30.1554296,,
605399,Kasanga,Kampala North,Rural,C,I-Engineering,Robert Otim,Allan Kavuma,1.17355235,32.45037426,,
605878,Bulubandi,Jinja ,Urban,C,Netis,Emmanuel Kafuko,William Bwire,0.606291,33.49921555,,
605401,Lefori,Arua  ,Rural,B,I-Engineering,Innocent Ayiko,Allan Kavuma,3.580358333,31.57754833,,
605400,Rwebisengo,Fort Portal   ,Urban,A,Camusat,Stephen Rwabwogo,Faridah Nantege,1.046715,30.26648667,,
605402,Kimengo,Hoima  ,Rural,A,I-Engineering,Latima Musoke,Allan Kavuma,1.56945611,31.95708601,,
605403,Rwaburimbe,Kabale  ,Urban,A,Camusat,Denis Masaba,Faridah Nantege,-1.2463432,29.8067368,,
605404,Kikagati,Kabale  ,Urban,A,Camusat,Denis Masaba,Faridah Nantege,-1.0200018,30.6556767,,
605880,Wakitaka,Mukono ,Urban,C,Netis,Emmanuel Kafuko,William Bwire,0.47344,33.21238333,,
605406,Mingoro,Arua  ,Rural,A,I-Engineering,Innocent Ayiko,Allan Kavuma,3.09642,30.8257583,,
605881,Nakimbolede,Mukono ,Urban,C,Netis,Samuel Naseke,William Bwire,0.457686667,33.12967167,,
605405,Nakaseke,Luwero ,Urban,A,I-Engineering,Robert Otim,Allan Kavuma,0.708999163,32.39734045,,
605882,Mugusu,Fort Portal   ,Urban,A,Camusat,Stephen Rwabwogo,Faridah Nantege,0.62992,30.23139167,Site decommissioned,
605407,Parombo,Arua  ,Rural,A,I-Engineering,Innocent Ayiko,Allan Kavuma,2.25371,31.26826,,
606432,Butta,Mbale  ,Rural,C,Netis,Jude Musana,William Bwire,1.390341667,34.326,,
605408,Pamvara,Arua  ,Rural,B,I-Engineering,Innocent Ayiko,Allan Kavuma,2.9720102,31.35710498,,
605885,Pager,Gulu ,Rural,C,I-Engineering,Moses Kaganda,Allan Kavuma,3.30732,32.88037667,,
605411,Serere,Soroti  ,Rural,A,Netis,Moses Wandera,William Bwire,1.543967533,33.4420302,,
605409,Kyegegwa,Fort Portal   ,Urban,A,Camusat,Stephen Rwabwogo,Faridah Nantege,0.474968333,31.06961,,
605410,Kyenjojo,Fort Portal   ,Urban,A,Camusat,Stephen Rwabwogo,Faridah Nantege,0.595288333,30.637525,,
605887,Kyebando_Central,Luwero ,Urban,B,Netis,Benbridge Mulongo,William Bwire,0.352996667,32.58199833,,
605412,Ngora,Mbale  ,Rural,A,Netis,Moses Wandera,William Bwire,1.4717713,33.7956726,,
605888,Kenjoy,Kampala West ,Urban,B,Camusat,Christopher Alituha,Faridah Nantege,0.284283333,32.56745833,,
605414,Kyankwanzi,Hoima  ,Rural,A,Camusat,Patrick Kinyera,Faridah Nantege,1.193568333,31.81755,,
605889,Ndiwulira,Kampala East  ,Urban,B,Netis,Benbridge Mulongo,William Bwire,0.364023333,32.65359,,
605413,Kiziba,Luwero ,Urban,A,I-Engineering,Robert Otim,Allan Kavuma,0.84018947,32.57845277,,
605890,Nakinyuguzi,Kampala South ,Urban,B,Netis,Salim Kinene,William Bwire,0.269331667,32.593785,,
605416,Karamurani,Mbarara ,Urban,A,Camusat,Thomasi Seruyange,Faridah Nantege,-0.7303924,30.566597,,
605891,Gangu,Kampala South ,Urban,B,Netis,Salim Kinene,William Bwire,0.241888333,32.59916833,,
605415,Kakumiro,Hoima  ,Urban,A,Camusat,Patrick Kinyera,Faridah Nantege,0.7782782,31.3212701,,
605892,MUK_Schoolof_Education,Kampala North,Urban,B,I-Engineering,Joash Lubwama,Allan Kavuma,0.3300817,32.56752,,
605417,Nakapiripirit,Soroti  ,Rural,A,Netis,Moses Wandera,William Bwire,1.829858333,34.67265333,,
605893,Muyenga_Tank_Hill,Kampala South ,Urban,A,Netis,Salim Kinene,William Bwire,0.290633333,32.62392167,,
605418,Rubindi,Mbarara ,Urban,A,Camusat,Thomasi Seruyange,Faridah Nantege,-0.305627117,30.58282477,,
605894,Kamuli_Town,Mukono ,Urban,C,Netis,Samuel Naseke,William Bwire,0.924035,33.12361333,,
605419,Zeu,Arua  ,Rural,C,I-Engineering,Innocent Ayiko,Allan Kavuma,2.5074067,30.8141338,,
605895,Banda_TC,Kampala East  ,Urban,B,Netis,Benbridge Mulongo,William Bwire,0.3459767,32.635905,,
605420,Butogota,Kabale  ,Urban,C,Camusat,Denis Masaba,Faridah Nantege,-0.909675,29.64768667,,
605896,Nansana_Naluvule,Mityana ,Urban,B,Camusat,Patrick Kinyera,Faridah Nantege,0.3789164,32.5195412,,
605899,St.Paul_kumi,Mbale  ,Rural,C,Netis,Moses Wandera,William Bwire,1.483989333,33.91597152,,
605897,Nyakasharu,Fort Portal   ,Urban,B,Camusat,Stephen Rwabwogo,Faridah Nantege,0.187788333,30.092785,,
605898,Mubuku,Fort Portal   ,Urban,C,Camusat,Stephen Rwabwogo,Faridah Nantege,0.228983333,30.11646833,,
605421,Kabulasoke,Masaka ,Urban,C,Camusat,M Patrick Kalibbala,Faridah Nantege,0.1662962,31.820342,,
605900,Starch_factory,Lira ,Rural,C,I-Engineering,Muhamood Kyongo,Allan Kavuma,2.2649504,32.90863333,,
605901,Ngetta,Lira ,Rural,C,I-Engineering,Muhamood Kyongo,Allan Kavuma,2.33436,32.93547,,
605423,Oraba,Arua  ,Rural,B,I-Engineering,Innocent Ayiko,Allan Kavuma,3.506041667,30.918475,,
605902,Onyapoyere,Lira ,Rural,C,I-Engineering,Muhamood Kyongo,Allan Kavuma,2.26134995,32.87448233,,
605426,Lukaya,Masaka ,Urban,C,Camusat,M Patrick Kalibbala,Faridah Nantege,-0.1427024,31.8762248,,
605903,Kasana_Town,Luwero ,Urban,B,I-Engineering,Robert Otim,Allan Kavuma,0.82693223,32.50281518,,
605425,Kagando,Fort Portal   ,Urban,B,Camusat,Stephen Rwabwogo,Faridah Nantege,0.06294,29.90181833,Site decommissioned,
605904,Magoma_House,Kampala North,Urban,B,I-Engineering,Joash Lubwama,Allan Kavuma,0.31203071,32.57606828,,
605906,Amolatar,Soroti  ,Rural,C,Netis,Moses Wandera,William Bwire,1.649055,32.85861333,,
605905,Mengo Hospital,Mityana ,Urban,B,Camusat,Christopher Alituha,Faridah Nantege,0.31264675,32.55973748,,
606007,Buyaga,Mbale  ,Rural,A,Netis,Jude Musana,William Bwire,1.270053333,34.28577,,
605907,Katunguru,Fort Portal   ,Urban,A,Camusat,Stephen Rwabwogo,Faridah Nantege,-0.124653333,30.0456,Site decommissioned,
605427,Kangulumira,Luwero ,Urban,C,Netis,Samuel Naseke,William Bwire,0.5831357,33.0367041,,
605909,Shuku Shema,Mbarara ,Urban,C,Camusat,Thomasi Seruyange,Faridah Nantege,-0.613859952,30.36711543,,
605428,Bbaale,Luwero ,Urban,A,Netis,Samuel Naseke,William Bwire,1.09843,32.8976183,,
605429,Masindi Town,Hoima  ,Rural,A,I-Engineering,Latima Musoke,Allan Kavuma,1.6817778,31.7227014,,
605430,Lokopo,Soroti  ,Rural,C,Netis,Moses Wandera,William Bwire,2.534175,33.99673333,,
605910,Katerera,Fort Portal   ,Urban,C,Camusat,Thomasi Seruyange,Faridah Nantege,-0.217106667,30.17325833,Site decommissioned,
605431,Kaabong,Soroti  ,Rural,A,Netis,Moses Wandera,William Bwire,3.518793333,34.13286333,,
605911,Muhororo,Fort Portal   ,Urban,B,Camusat,Stephen Rwabwogo,Faridah Nantege,0.915991667,30.7562,,
605912,Kitobo,Masaka ,Urban,B,Camusat,M Patrick Kalibbala,Faridah Nantege,-0.257201667,32.37325333,,
605432,Kalongo,Gulu ,Rural,A,I-Engineering,Moses Kaganda,Allan Kavuma,3.04259141,33.36550053,,
605913,Kabingo,Mbarara ,Urban,C,Camusat,Thomasi Seruyange,Faridah Nantege,-0.716231656,30.6918498,,
605433,Tirinyi,Mbale  ,Rural,C,Netis,Jude Musana,William Bwire,1.01369,33.7753367,,
605914,Kitongore,Mbarara ,Urban,C,Camusat,Thomasi Seruyange,Faridah Nantege,-0.104875,30.6412717,,
605434,Magale,Mbale  ,Rural,B,Netis,Jude Musana,William Bwire,0.862565,34.358445,,
605915,Lwengo,Masaka ,Urban,C,Camusat,M Patrick Kalibbala,Faridah Nantege,-0.4854833,31.5119083,,
605435,Igayaza,Mbarara ,Urban,A,Camusat,Thomasi Seruyange,Faridah Nantege,-0.8068792,30.7856358,,
605916,Lwanda,Masaka ,Urban,C,Camusat,M Patrick Kalibbala,Faridah Nantege,-0.6739944,31.4576672,,
605436,Kaberamaido,Soroti  ,Rural,A,Netis,Moses Wandera,William Bwire,1.767813333,33.15167833,,
605917,Sanje,Masaka ,Urban,C,Camusat,M Patrick Kalibbala,Faridah Nantege,-0.789735792,31.49068046,,
606098,Budadiri,Mbale  ,Urban,C,Netis,Jude Musana,William Bwire,1.166931667,34.32880333,,
605918,Kagongo,Mbarara ,Urban,C,Camusat,Thomasi Seruyange,Faridah Nantege,-0.1306667,30.4507367,,
605920,Kyabugimbi,Mbarara ,Urban,B,Camusat,Thomasi Seruyange,Faridah Nantege,-0.5018171,30.2703835,,
605437,Tende,Kampala West ,Urban,B,Camusat,Christopher Alituha,Faridah Nantege,0.044876667,32.556535,,
605919,Bukuya,Hoima  ,Urban,C,Camusat,Patrick Kinyera,Faridah Nantege,0.664445,31.82480667,,
605921,Wakwaba,Mbale  ,Rural,C,Netis,Jude Musana,William Bwire,1.044025,34.182335,,
605438,Sironko,Mbale  ,Rural,A,Netis,Jude Musana,William Bwire,1.232276667,34.24553833,,
605922,Kitemba,Hoima  ,Rural,C,Camusat,Stephen Rwabwogo,Faridah Nantege,1.038446667,31.11463833,,
605439,Rubaare,Kabale  ,Urban,A,Camusat,Denis Masaba,Faridah Nantege,-1.0036833,30.1405183,,
605923,Kizungu,Mbarara ,Urban,B,Camusat,Thomasi Seruyange,Faridah Nantege,-0.6,30.66587667,,
605440,Ruhinda,Kabale  ,Urban,A,Camusat,Denis Masaba,Faridah Nantege,-0.6461817,30.045195,,
605924,Mugalike,Hoima  ,Urban,C,Camusat,Stephen Rwabwogo,Faridah Nantege,0.997276667,30.84999333,,
605979,Rwenshama,Kabale  ,Urban,C,Camusat,Denis Masaba,Faridah Nantege,-0.413901667,29.776195,,
605926,Kashongi,Mbarara ,Urban,B,Camusat,Thomasi Seruyange,Faridah Nantege,-0.2768451,30.6454533,,
605441,Namwendwa,Mukono ,Urban,A,Netis,Emmanuel Kafuko,William Bwire,0.91672,33.272125,,
605927,Bugongi,Mbarara ,Urban,C,Camusat,Thomasi Seruyange,Faridah Nantege,-0.6259749,30.2286421,,
605442,Nawaikoke,Jinja ,Urban,A,Netis,Emmanuel Kafuko,William Bwire,1.14311,33.43250167,,
605928,Biharwe,Mbarara ,Urban,C,Camusat,Thomasi Seruyange,Faridah Nantege,-0.5237362,30.7171518,,
605443,Nankoma,Jinja ,Urban,B,Netis,Emmanuel Kafuko,William Bwire,0.450841667,33.68050333,,
605930,Kiburara,Hoima  ,Rural,C,I-Engineering,Latima Musoke,Allan Kavuma,1.147386667,31.00508833,,
605444,Kilembe,Fort Portal   ,Urban,C,Camusat,Stephen Rwabwogo,Faridah Nantege,0.200458333,30.02275167,,
605929,Kaihura,Fort Portal   ,Urban,C,Camusat,Stephen Rwabwogo,Faridah Nantege,0.652991667,30.56816,Site decommissioned,
605445,Kabwangasi,Mbale  ,Rural,C,Netis,Jude Musana,William Bwire,1.138471667,34.10954333,,
605447,Maracha,Arua  ,Rural,A,I-Engineering,Innocent Ayiko,Allan Kavuma,3.226296667,30.98259333,,
605446,BuvumaIsland,Mukono ,Urban,B,Netis,Samuel Naseke,William Bwire,0.158648333,33.284045,,
605448,Logiri,Arua  ,Rural,C,I-Engineering,Innocent Ayiko,Allan Kavuma,2.7671895,30.8552477,,
605932,Igorora,Mbarara ,Urban,C,Camusat,Thomasi Seruyange,Faridah Nantege,-0.2443431,30.5529468,,
605931,kigarama,Fort Portal   ,Urban,C,Camusat,Stephen Rwabwogo,Faridah Nantege,0.597536667,30.31208167,,
605450,Obongi,Arua  ,Rural,B,I-Engineering,Innocent Ayiko,Allan Kavuma,3.28136,31.5427,,
605449,Kasambya,Fort Portal   ,Urban,A,Camusat,Stephen Rwabwogo,Faridah Nantege,0.359743333,31.18915167,,
605451,Biliefe,Arua  ,Rural,C,I-Engineering,Innocent Ayiko,Allan Kavuma,3.07175676,31.06536597,,
605933,Mitooma,Kabale  ,Urban,C,Camusat,Denis Masaba,Faridah Nantege,-0.730868333,30.05554667,,
605586,Nakawuka,Kampala West ,Urban,A,Camusat,Christopher Alituha,Faridah Nantege,0.1899673,32.4249508,,
605934,Bukurungu,Kabale  ,Urban,C,Camusat,Denis Masaba,Faridah Nantege,-0.643011667,29.84330667,,
605937,Kamdini,Lira ,Rural,A,I-Engineering,Muhamood Kyongo,Allan Kavuma,2.24668325,32.33603009,,
605364,CICO Karugutu,Fort Portal   ,Urban,C,Camusat,Stephen Rwabwogo,Faridah Nantege,0.8089867,30.232345,Managed site to be re-owned by mtn,
605936,Waina,Jinja ,Urban,B,Netis,Emmanuel Kafuko,William Bwire,0.658883333,33.33210333,,
605453,Ofua,Gulu ,Rural,C,I-Engineering,Moses Kaganda,Allan Kavuma,3.189627,31.790975,,
605454,Kafunzo,Kabale  ,Urban,A,Camusat,Denis Masaba,Faridah Nantege,-0.962323333,30.43013,,
605938,Nana_Centre,Kampala North,Urban,B,I-Engineering,Joash Lubwama,Allan Kavuma,0.31468,32.57463,,
605939,Namasale,Soroti  ,Rural,C,Netis,Moses Wandera,William Bwire,1.508828333,32.61563833,,
605940,Ishongororo Town,Mbarara ,Urban,C,Camusat,Thomasi Seruyange,Faridah Nantege,0.056501667,30.48604333,,
605941,Nakaloke,Mbale  ,Rural,B,Netis,Jude Musana,William Bwire,1.141295,34.165005,,
605455,Rackoko,Lira ,Rural,A,I-Engineering,Muhamood Kyongo,Allan Kavuma,2.6987973,32.9440861,,
605457,Adea,Soroti  ,Rural,A,Netis,Moses Wandera,William Bwire,2.504056667,33.67092,,
605942,Mityana Highway,Mityana ,Urban,B,Camusat,Patrick Kinyera,Faridah Nantege,0.393565,32.0669983,,
605456,Ndaiga,Fort Portal   ,Urban,B,Camusat,Stephen Rwabwogo,Faridah Nantege,0.989276667,30.586545,,
605943,Moniko,Mukono ,Urban,C,Netis,Samuel Naseke,William Bwire,0.385668333,32.90049167,,
605945,Ayac,Lira ,Rural,C,I-Engineering,Muhamood Kyongo,Allan Kavuma,2.1058786,33.00323228,,
605944,Namumira_Hill,Mukono ,Urban,C,Netis,Samuel Naseke,William Bwire,0.333096667,32.757395,,
605458,Kakabara,Fort Portal   ,Urban,A,Camusat,Stephen Rwabwogo,Faridah Nantege,0.523053333,30.915535,,
605946,Kitampene,Kabale  ,Urban,C,Camusat,Denis Masaba,Faridah Nantege,-0.8282071,30.1430202,,
605948,Pamba_cell,Soroti  ,Rural,B,Netis,Moses Wandera,William Bwire,1.704095283,33.61268435,,
605949,Agururu,Mbale  ,Rural,C,Netis,Jude Musana,William Bwire,0.698335,34.16561167,,
605459,Kasensero,Masaka ,Urban,C,Camusat,M Patrick Kalibbala,Faridah Nantege,-0.91075159,31.7266968,,
605951,Camp Swahili,Soroti  ,Rural,C,Netis,Moses Wandera,William Bwire,1.734319467,33.6103422,,
605950,Namere,Kampala North,Urban,B,I-Engineering,Joash Lubwama,Allan Kavuma,0.39046,32.56271083,,
605460,Olima,Gulu ,Rural,A,I-Engineering,Moses Kaganda,Allan Kavuma,3.6570236,32.99238372,,
605461,Palabek,Gulu ,Rural,A,I-Engineering,Moses Kaganda,Allan Kavuma,3.40918216,32.5991331,,
605952,Kapeeka_Town,Luwero ,Urban,C,I-Engineering,Robert Otim,Allan Kavuma,0.6821443,32.24613561,,
605953,Nakasuzi,Kampala West ,Urban,B,Camusat,Christopher Alituha,Faridah Nantege,0.2740105,32.4915066,,
605954,Sentema,Mityana ,Urban,B,Camusat,Patrick Kinyera,Faridah Nantege,0.37482464,32.44806883,,
605956,Naalya Housing,Kampala East  ,Urban,B,Netis,Benbridge Mulongo,William Bwire,0.3707697,32.63856,,
605957,Kkulumba,Kampala North,Urban,B,I-Engineering,Joash Lubwama,Allan Kavuma,0.35982554,32.56904717,,
605958,Kakonda,Luwero ,Urban,C,I-Engineering,Robert Otim,Allan Kavuma,0.41962233,32.40281158,,
605959,Wakikoola,Luwero ,Urban,A,Netis,Samuel Naseke,William Bwire,0.526901667,33.08751833,,
605462,Namokora,Gulu ,Rural,A,I-Engineering,Moses Kaganda,Allan Kavuma,3.39327,33.32689,,
605463,Ikumba,Kabale  ,Urban,A,Camusat,Denis Masaba,Faridah Nantege,-1.179092,29.8865967,,
605961,Kaggaba Hill,Kampala West ,Urban,C,Camusat,M Patrick Kalibbala,Faridah Nantege,0.252096,32.3746262,,
606105,Anaka,Gulu ,Rural,A,I-Engineering,Moses Kaganda,Allan Kavuma,2.601555,31.94815833,,
605962,Gobero,Mityana ,Urban,C,Camusat,Patrick Kinyera,Faridah Nantege,0.4569563,32.2906369,,
605464,Kaiso,Hoima  ,Rural,A,I-Engineering,Latima Musoke,Allan Kavuma,1.470158333,31.05435667,,
605963,Kasenge,Kampala West ,Urban,B,Camusat,Christopher Alituha,Faridah Nantege,0.2473048,32.5047455,,
605468,Anywali,Soroti  ,Rural,A,Netis,Moses Wandera,William Bwire,1.709465,32.90145167,,
605663,Bwebajja,Kampala West ,Urban,A,Camusat,Christopher Alituha,Faridah Nantege,0.171303333,32.52610667,,
605465,Maliba,Fort Portal   ,Urban,C,Camusat,Stephen Rwabwogo,Faridah Nantege,1.218479285,34.25188355,,
605965,Kyetume,Mukono ,Urban,C,Netis,Samuel Naseke,William Bwire,0.301791667,32.78371333,,
605466,Kapeeka,Luwero ,Urban,A,I-Engineering,Robert Otim,Allan Kavuma,0.676257731,32.27454373,,
605966,Nyenga,Mukono ,Urban,C,Netis,Samuel Naseke,William Bwire,0.328285,33.12272333,,
605967,Gombe_Matugga,Luwero ,Urban,B,I-Engineering,Robert Otim,Allan Kavuma,0.50169605,32.51480586,,
605968,Namayumba,Mityana ,Urban,C,Camusat,Patrick Kinyera,Faridah Nantege,0.5262739,32.2495703,,
605467,Bisozi,Fort Portal   ,Urban,A,Camusat,Stephen Rwabwogo,Faridah Nantege,0.285306667,30.60031833,,
605969,Wairaka,Jinja ,Urban,C,Netis,Emmanuel Kafuko,William Bwire,0.475485,33.25485333,,
605469,Iriiri,Soroti  ,Rural,A,Netis,Moses Wandera,William Bwire,2.113405,34.23504167,,
605970,Kosovo,Mityana ,Urban,B,Camusat,Patrick Kinyera,Faridah Nantege,0.31139237,32.53438369,,
605470,Abim,Soroti  ,Rural,A,Netis,Moses Wandera,William Bwire,2.697988333,33.63889167,,
605472,Arua_Market,Arua  ,Rural,B,I-Engineering,Innocent Ayiko,Allan Kavuma,3.025766667,30.90895667,,
605678,Bwerenga,Kampala West ,Urban,B,Camusat,Christopher Alituha,Faridah Nantege,0.137528333,32.57454667,,
605971,Kamonkoli,Mbale  ,Rural,A,Netis,Jude Musana,William Bwire,1.07651,34.0954117,,
605473,Zanna_Ndejje,Kampala West ,Urban,B,Camusat,Christopher Alituha,Faridah Nantege,0.25154188,32.57060404,,
605972,Nsiika,Mbarara ,Urban,C,Camusat,Thomasi Seruyange,Faridah Nantege,-0.3434324,30.3030253,,
605474,Lungujja,Mityana ,Urban,A,Camusat,Patrick Kinyera,Faridah Nantege,0.31110252,32.54603959,,
605973,Agwata,Lira ,Rural,B,I-Engineering,Muhamood Kyongo,Allan Kavuma,1.971058333,32.97823833,,
605475,Nateete_Market,Kampala West ,Urban,B,Camusat,Christopher Alituha,Faridah Nantege,0.29876274,32.534063,,
605478,Lwamagwa,Masaka ,Urban,B,Camusat,M Patrick Kalibbala,Faridah Nantege,-0.5317335,31.2816349,,
605476,Kyengera_Market,Kampala West ,Urban,B,Camusat,M Patrick Kalibbala,Faridah Nantege,0.29242376,32.50017078,,
605974,Ivukula,Jinja ,Urban,B,Netis,Emmanuel Kafuko,William Bwire,0.94196095,33.62839072,,
607064,Kajjansi_Town,Kampala West ,Urban,A,Camusat,Christopher Alituha,Faridah Nantege,0.429922,32.4403724,,
605826,Kigo,Kampala South ,Urban,B,Netis,Salim Kinene,William Bwire,0.208663333,32.57830833,,
605976,Kalangala BIDCO,Masaka ,Urban,B,Camusat,M Patrick Kalibbala,Faridah Nantege,-0.528793333,32.15999833,,
605479,Endinzi,Mbarara ,Urban,B,Camusat,Thomasi Seruyange,Faridah Nantege,-0.871991,31.0887288,,
605488,HoimaTown,Hoima  ,Rural,A,Camusat,Stephen Rwabwogo,Faridah Nantege,1.431516667,31.35215167,,
605977,Nakiwogo,Kampala West ,Urban,B,Camusat,Christopher Alituha,Faridah Nantege,0.079208333,32.45683667,,
605480,Hotel_Africana,Kampala East  ,Urban,B,Netis,Salim Kinene,William Bwire,0.318976667,32.59551833,,
605482,Namungona,Mityana ,Urban,B,Camusat,Patrick Kinyera,Faridah Nantege,0.35343792,32.53402837,,
605483,Marias Galleria,Kampala South ,Urban,B,Netis,Salim Kinene,William Bwire,0.314996667,32.582055,,
605485,Kawempe,Kampala North,Urban,B,I-Engineering,Joash Lubwama,Allan Kavuma,0.38093113,32.55679801,,
605486,Muguluma House,Kampala West ,Urban,B,Camusat,Christopher Alituha,Faridah Nantege,0.24998936,32.56124321,,
605978,Mpanga Falls,Fort Portal   ,Urban,C,Camusat,Thomasi Seruyange,Faridah Nantege,0.076538333,30.34972333,,
605487,Nakawa_CMC,Kampala East  ,Urban,B,Netis,Salim Kinene,William Bwire,0.3309963,32.6128246,,
605980,Kaptum,Mbale  ,Rural,A,Netis,Jude Musana,William Bwire,1.427993333,34.58154167,,
605982,Ntara,Mbarara ,Urban,C,Camusat,Thomasi Seruyange,Faridah Nantege,-0.0067923,30.3590829,,
605981,Bulopa,Mukono ,Urban,C,Netis,Samuel Naseke,William Bwire,0.850876667,33.24023167,,
605489,Kiwafu,Kampala South ,Urban,B,Netis,Salim Kinene,William Bwire,0.284981667,32.617755,,
605490,Mbale_Town,Mbale  ,Rural,A,Netis,Jude Musana,William Bwire,1.07394372,34.17691633,,
605983,Bibia,Gulu ,Rural,A,I-Engineering,Moses Kaganda,Allan Kavuma,3.472358333,32.06805,,
605491,Gulu_Town,Gulu ,Rural,B,I-Engineering,Moses Kaganda,Allan Kavuma,2.771728,32.299946,,
605492,Lira_Town,Lira ,Rural,B,I-Engineering,Muhamood Kyongo,Allan Kavuma,2.24281,32.89731,,
605984,Ngogwe,Mukono ,Urban,B,Netis,Samuel Naseke,William Bwire,0.238043333,32.99215667,,
605493,Lokung,Gulu ,Rural,C,I-Engineering,Moses Kaganda,Allan Kavuma,3.58996896,32.71034101,,
605985,Rukoni East,Kabale  ,Urban,C,Camusat,Denis Masaba,Faridah Nantege,-0.8778894,30.5188012,,
605986,Ochapa,Soroti  ,Rural,A,Netis,Moses Wandera,William Bwire,1.5006814,33.5480447,,
606524,KBM_Hotel,Kampala East  ,Urban,B,Netis,Benbridge Mulongo,William Bwire,0.351273333,32.645215,,
605495,Pajule,Gulu ,Rural,A,I-Engineering,Moses Kaganda,Allan Kavuma,3.044335,32.91819333,,
605987,Morunyang,Soroti  ,Rural,A,Netis,Moses Wandera,William Bwire,3.401103333,33.85314167,,
605496,Ogom,Gulu ,Rural,C,I-Engineering,Moses Kaganda,Allan Kavuma,2.965128333,32.64673667,,
605499,Etam,Soroti  ,Rural,B,Netis,Moses Wandera,William Bwire,1.63037,32.72497167,,
605988,Namungoona_RT,Mityana ,Urban,B,Camusat,Patrick Kinyera,Faridah Nantege,0.36173733,32.52998794,,
605497,Mutungo,Kampala South ,Urban,B,Netis,Salim Kinene,William Bwire,0.320215,32.64694667,,
605989,St.Lawrence_Universi,Mityana ,Urban,B,Camusat,Christopher Alituha,Faridah Nantege,0.29665148,32.56375393,,
605498,Kamwokya_market,Kampala East  ,Urban,B,Netis,Benbridge Mulongo,William Bwire,0.345105,32.588985,,
605990,CaresCorner,Kampala North,Urban,B,I-Engineering,Joash Lubwama,Allan Kavuma,0.31001946,32.57694044,,
605500,Kapenyeret,Soroti  ,Rural,C,Netis,Moses Wandera,William Bwire,2.206503333,34.89775667,,
605991,Kasangati_TC,Luwero ,Urban,B,Netis,Benbridge Mulongo,William Bwire,0.438251667,32.60140167,,
605992,Crest_House,Kampala South ,Urban,B,Netis,Salim Kinene,William Bwire,0.311683333,32.58705833,,
605997,Masaka BOU,Masaka ,Urban,C,Camusat,M Patrick Kalibbala,Faridah Nantege,-0.33850958,31.7392789,,
605993,Kabakanjagala,Mityana ,Urban,B,Camusat,Christopher Alituha,Faridah Nantege,0.30553575,32.56193979,,
605501,Nakivubo_Place,Kampala North,Urban,B,I-Engineering,Joash Lubwama,Allan Kavuma,0.30973,32.57589,,
605994,Kaliro_Town,Jinja ,Urban,C,Netis,Emmanuel Kafuko,William Bwire,0.895401517,33.50530875,,
605502,Mackay_Road,Kampala North,Urban,B,I-Engineering,Joash Lubwama,Allan Kavuma,0.3151691,32.5726437,,
605995,Bwera Town,Fort Portal   ,Urban,C,Camusat,Stephen Rwabwogo,Faridah Nantege,0.032958333,29.76139667,,
605503,Mukwano_Centre,Kampala North,Urban,B,I-Engineering,Joash Lubwama,Allan Kavuma,0.312602778,32.57591944,,
605996,Kagadi Town,Hoima  ,Urban,B,Camusat,Stephen Rwabwogo,Faridah Nantege,0.937465,30.81110167,,
605506,Karita,Mbale  ,Rural,A,Netis,Jude Musana,William Bwire,1.467545,34.81988667,,
605998,Lira_Lumumba,Lira ,Rural,B,I-Engineering,Muhamood Kyongo,Allan Kavuma,2.228383333,32.902895,,
605507,Namalu,Soroti  ,Rural,B,Netis,Moses Wandera,William Bwire,1.763261667,34.60693333,,
605508,Kadungulu,Soroti  ,Rural,C,Netis,Moses Wandera,William Bwire,1.52571245,33.211035,,
606000,mbale_market,Mbale  ,Rural,B,Netis,Jude Musana,William Bwire,1.07133523,34.17764155,,
606003,Rukungiri Town,Kabale  ,Urban,C,Camusat,Denis Masaba,Faridah Nantege,-0.7913983,29.925355,,
606001,Nakayima,Mityana ,Urban,B,Camusat,Patrick Kinyera,Faridah Nantege,0.560038,31.3864663,,
606002,Kyaliwajjala_TC,Kampala East  ,Urban,B,Netis,Benbridge Mulongo,William Bwire,0.3810318,32.6467583,,
605509,Amudat,Soroti  ,Rural,C,Netis,Moses Wandera,William Bwire,1.943148333,34.93026833,,
606004,Entebbe Market,Kampala West ,Urban,B,Camusat,Christopher Alituha,Faridah Nantege,0.069631667,32.475115,,
606005,Katadde,Kampala North,Urban,B,I-Engineering,Robert Otim,Allan Kavuma,0.46032599,32.56605156,,
605512,Butemba,Hoima  ,Rural,B,Camusat,Stephen Rwabwogo,Faridah Nantege,1.145745,31.54458333,,
606006,Makerere_Business_In,Kampala North,Urban,B,I-Engineering,Joash Lubwama,Allan Kavuma,0.342958333,32.564465,,
605510,Kyanja,Luwero ,Urban,B,Netis,Benbridge Mulongo,William Bwire,0.38929486,32.59785486,,
605511,State House,Kampala East  ,Urban,B,Netis,Salim Kinene,William Bwire,0.32044,32.581505,,
606044,Kabanyonyi,Kabale  ,Urban,C,Camusat,Denis Masaba,Faridah Nantege,-1.316978333,30.070485,,
606008,Bugobero,Mbale  ,Rural,B,Netis,Jude Musana,William Bwire,0.921055,34.26876667,,
606110,Katigondo,Masaka ,Urban,C,Camusat,M Patrick Kalibbala,Faridah Nantege,-0.2232698,31.7485604,,
606009,Komuria,Soroti  ,Rural,A,Netis,Moses Wandera,William Bwire,3.53501,34.12326,,
605516,Kisiizi,Kabale  ,Urban,C,Camusat,Denis Masaba,Faridah Nantege,-0.9903274,29.9465664,,
605513,Kisaasi_Kikaaya,Luwero ,Urban,B,Netis,Benbridge Mulongo,William Bwire,0.361913333,32.59457333,,
605514,Bukungu,Mukono ,Urban,A,Netis,Samuel Naseke,William Bwire,1.377266667,32.87205833,,
606109,KCCL-Indoor,Fort Portal   ,Rural,C,Camusat,Stephen Rwabwogo,Faridah Nantege,#N/A,#N/A,Managed site to be re-owned by mtn,
605517,Kawuka,Hoima  ,Rural,A,Camusat,Stephen Rwabwogo,Faridah Nantege,1.257516667,31.52004167,,
606018,Bweyogerere_RT,Kampala East  ,Urban,B,Netis,Benbridge Mulongo,William Bwire,0.354660183,32.6675835,,
606012,Kiboga_town,Hoima  ,Rural,C,Camusat,Patrick Kinyera,Faridah Nantege,0.914508333,31.76782,,
605518,Lower_Makindye,Kampala South ,Urban,A,Netis,Salim Kinene,William Bwire,0.29345,32.58161167,,
606069,Kigoma,Mityana ,Urban,C,Camusat,Patrick Kinyera,Faridah Nantege,0.35721357,32.48814643,,
605519,London_Chambers,Kampala South ,Urban,B,Netis,Salim Kinene,William Bwire,0.314653333,32.57729333,,
606010,Bulanga,Jinja ,Urban,C,Netis,Emmanuel Kafuko,William Bwire,0.565835,33.412555,,
605827,Namasuba_Kikajjo,Kampala West ,Urban,B,Camusat,Christopher Alituha,Faridah Nantege,0.26082368,32.56939486,,
605520,kiira_Namugongo,Luwero ,Urban,A,Netis,Benbridge Mulongo,William Bwire,0.414871667,32.64663833,,
606070,Orungo,Soroti  ,Rural,C,Netis,Moses Wandera,William Bwire,2.042466667,33.45214667,,
605521,katanga,Kampala North,Urban,B,I-Engineering,Joash Lubwama,Allan Kavuma,0.3357336,32.5731723,,
605522,Kiruhura,Mbarara ,Urban,C,Camusat,Thomasi Seruyange,Faridah Nantege,-0.2025633,30.833475,,
606071,Nakatiba,Masaka ,Urban,B,Camusat,M Patrick Kalibbala,Faridah Nantege,-0.41709,32.21990833,,
606072,Agule,Mbale  ,Rural,C,Netis,Jude Musana,William Bwire,1.2717287,33.7083084,,
605523,Kikoni,Kampala North,Urban,B,I-Engineering,Joash Lubwama,Allan Kavuma,0.33461,32.56122,,
605524,Amuria,Soroti  ,Rural,A,Netis,Moses Wandera,William Bwire,2.04601695,33.67449405,,
606073,Bugala,Masaka ,Urban,C,Camusat,M Patrick Kalibbala,Faridah Nantege,-0.252868333,32.09869333,,
606074,Akalo,Lira ,Rural,B,I-Engineering,Muhamood Kyongo,Allan Kavuma,2.1614708,32.8423949,,
605525,FortPortalPlot15,Fort Portal   ,Urban,A,Camusat,Stephen Rwabwogo,Faridah Nantege,0.6545516,30.2750185,,
606075,Acholi-Bur,Gulu ,Rural,C,I-Engineering,Moses Kaganda,Allan Kavuma,3.127741667,32.91320167,,
606076,Malaba_Town,Mbale  ,Rural,B,Netis,Jude Musana,William Bwire,0.643118333,34.26463833,,
605526,Nakwaya,Hoima  ,Urban,C,Camusat,Patrick Kinyera,Faridah Nantege,0.645745,32.10318,,
606096,Luthili Avenue,Kampala South ,Urban,B,Netis,Salim Kinene,William Bwire,0.3128318,32.6285799,,
605829,Kawuku,Kampala West ,Urban,B,Camusat,Christopher Alituha,Faridah Nantege,0.139766667,32.53892167,,
605527,Maddu,Masaka ,Urban,A,Camusat,M Patrick Kalibbala,Faridah Nantege,0.2468807,31.63718,,
606078,Bataringanya Street,Mbarara ,Urban,B,Camusat,Thomasi Seruyange,Faridah Nantege,-0.13324,30.50021,,
606077,Bugonga,Kampala West ,Urban,B,Camusat,Christopher Alituha,Faridah Nantege,0.040195,32.46700833,,
605528,Kiganda,Mityana ,Urban,A,Camusat,Patrick Kinyera,Faridah Nantege,0.45912,31.683665,,
605529,Nateete Central,Kampala West ,Urban,B,Camusat,Christopher Alituha,Faridah Nantege,0.30206295,32.52618156,,
605530,Katwe,Kampala West ,Urban,B,Camusat,Christopher Alituha,Faridah Nantege,0.297408333,32.57348,,
606094,Nyakabungo,Kabale  ,Urban,C,Camusat,Denis Masaba,Faridah Nantege,-1.2490242,29.9786962,,
605531,Najjanankumbi,Kampala West ,Urban,B,Camusat,Christopher Alituha,Faridah Nantege,0.278806667,32.566365,,
605532,Kamwezi,Kabale  ,Urban,C,Camusat,Denis Masaba,Faridah Nantege,-1.21521,30.2290733,,
606079,Kasheshe,Kabale  ,Urban,C,Camusat,Denis Masaba,Faridah Nantege,-0.85225,29.92862,,
606095,Obalanga,Soroti  ,Rural,B,Netis,Moses Wandera,William Bwire,2.193470033,33.59865348,,
605533,Kihura,Fort Portal   ,Urban,C,Camusat,Stephen Rwabwogo,Faridah Nantege,0.581311667,30.71290333,,
605534,Lira_Soroti_Road,Lira ,Rural,A,I-Engineering,Muhamood Kyongo,Allan Kavuma,2.234884683,32.89264857,,
605535,Chesoweri,Mbale  ,Rural,C,Netis,Jude Musana,William Bwire,1.339298333,34.67741833,,
606080,Mugoma Hill,Fort Portal   ,Urban,C,Camusat,Stephen Rwabwogo,Faridah Nantege,0.711255,30.67678833,,
605538,Kodiri,Mbale  ,Rural,C,Netis,Jude Musana,William Bwire,1.14886622,33.93668765,,
606092,Plot20_Namirembe_Road,Kampala North,Urban,B,I-Engineering,Joash Lubwama,Allan Kavuma,0.31317,32.57087,,
605536,Mpondwe,Fort Portal   ,Urban,A,Camusat,Stephen Rwabwogo,Faridah Nantege,0.038875,29.75141,Site decommissioned,
606081,Wandegeya_Central,Kampala North,Urban,B,I-Engineering,Joash Lubwama,Allan Kavuma,0.3333089,32.5736802,,
605537,Magoma,Hoima  ,Urban,B,Camusat,Patrick Kinyera,Faridah Nantege,0.9538267,31.2234167,,
606119,Nyakasanga,Fort Portal   ,Urban,C,Camusat,Stephen Rwabwogo,Faridah Nantege,0.183738333,30.082565,,
606084,Pece,Gulu ,Rural,C,I-Engineering,Moses Kaganda,Allan Kavuma,2.7720898,32.31630109,,
606083,Ntoroko,Fort Portal   ,Urban,C,Camusat,Stephen Rwabwogo,Faridah Nantege,1.052261667,30.537865,,
605539,Kirinya,Kampala East  ,Urban,A,Netis,Benbridge Mulongo,William Bwire,0.341391667,32.66195333,,
606085,Bugwere_cell,Mbale  ,Rural,C,Netis,Jude Musana,William Bwire,1.0808247,34.1566404,,
605540,Masese_Jinja,Mukono ,Urban,B,Netis,Emmanuel Kafuko,William Bwire,0.437921667,33.23499,,
606086,Butebo,Mbale  ,Rural,B,Netis,Jude Musana,William Bwire,1.201413333,33.90049,,
605541,Kasese_Town,Fort Portal   ,Urban,B,Camusat,Stephen Rwabwogo,Faridah Nantege,0.176415,30.07794667,,
605542,Kamukuzi,Mbarara ,Urban,A,Camusat,Thomasi Seruyange,Faridah Nantege,-0.6112079,30.6407197,,
606087,kiswata/Kyema,Hoima  ,Rural,C,I-Engineering,Latima Musoke,Allan Kavuma,1.7428105,31.7086394,,
605543,Orum,Lira ,Rural,C,I-Engineering,Muhamood Kyongo,Allan Kavuma,2.40483,33.355135,,
606116,Alito,Lira ,Rural,A,I-Engineering,Muhamood Kyongo,Allan Kavuma,2.438066667,32.83056333,,
605544,Aloi,Lira ,Rural,A,I-Engineering,Muhamood Kyongo,Allan Kavuma,2.239166667,32.89996167,,
605545,Lwemiyaga,Masaka ,Urban,B,Camusat,Thomasi Seruyange,Faridah Nantege,0.1273517,31.1115597,,
605844,Nsamizi,Kampala West ,Urban,B,Camusat,Christopher Alituha,Faridah Nantege,0.067925,32.46188333,,
605546,Dokolo,Soroti  ,Rural,A,Netis,Moses Wandera,William Bwire,1.912098333,33.17546833,,
606090,Mbulamuti,Mukono ,Urban,C,Netis,Samuel Naseke,William Bwire,0.839501667,33.04904667,,
605547,Atiak,Gulu ,Rural,A,I-Engineering,Moses Kaganda,Allan Kavuma,3.2461717,32.131985,,
606091,Galiraya,Luwero ,Urban,C,Netis,Samuel Naseke,William Bwire,1.3443948,32.8174104,,
605548,Chawente,Lira ,Rural,B,I-Engineering,Muhamood Kyongo,Allan Kavuma,1.7481346,32.6524321,,
606014,Tororo MGW_Transmission,Mbale  ,Rural,A,Netis,Jude Musana,William Bwire,0.712718333,34.182655,,
605549,Pabbo,Gulu ,Rural,A,I-Engineering,Moses Kaganda,Allan Kavuma,3.010325,32.149385,,
606017,Sidok,Soroti  ,Rural,C,Netis,Moses Wandera,William Bwire,3.420046667,34.145675,,
605550,Kasanda,Mityana ,Urban,C,Camusat,Patrick Kinyera,Faridah Nantege,0.5393128,31.8474705,,
605551,Otwal,Lira ,Rural,C,I-Engineering,Muhamood Kyongo,Allan Kavuma,2.51189381,32.70469599,,
605552,Minakulu,Gulu ,Rural,C,I-Engineering,Muhamood Kyongo,Allan Kavuma,2.4353192,32.32261071,,
605553,Bugoma,Hoima  ,Rural,A,I-Engineering,Latima Musoke,Allan Kavuma,1.20298,30.74237167,,
605554,Matany,Soroti  ,Rural,A,Netis,Moses Wandera,William Bwire,2.409543333,34.40249667,,
605555,Alerek,Soroti  ,Rural,C,Netis,Moses Wandera,William Bwire,2.847823333,33.76354833,,
605556,Adilang,Lira ,Rural,B,I-Engineering,Muhamood Kyongo,Allan Kavuma,2.704292,33.4835481,,
605557,Aber,Lira ,Rural,C,I-Engineering,Muhamood Kyongo,Allan Kavuma,2.15367164,32.36451398,,
605558,Nyakwae,Soroti  ,Rural,C,Netis,Moses Wandera,William Bwire,2.527283333,33.99122667,,
606120,Mukura  (Serere B),Soroti  ,Rural,B,Netis,Moses Wandera,William Bwire,1.499405917,33.48565438,,
605559,Ntwetwe,Hoima  ,Rural,A,Camusat,Patrick Kinyera,Faridah Nantege,0.919936667,31.56786833,,
606122,Eye Wear point,Mbarara ,Urban,B,Camusat,Thomasi Seruyange,Faridah Nantege,-0.60777,30.661515,,
605560,Kitholhu,Fort Portal   ,Urban,B,Camusat,Stephen Rwabwogo,Faridah Nantege,0.116551667,29.74759167,,
605561,Bukwo,Mbale  ,Rural,A,Netis,Jude Musana,William Bwire,1.319431667,34.739555,,
605562,Bukomero,Hoima  ,Rural,B,Camusat,Patrick Kinyera,Faridah Nantege,0.66371,32.03464,,
605563,Masaka_Town,Masaka ,Urban,B,Camusat,M Patrick Kalibbala,Faridah Nantege,-0.3441615,31.7385436,,
605566,Kabale,Kabale  ,Urban,B,Camusat,Denis Masaba,Faridah Nantege,-1.2598687,29.9924085,,
605564,Mubende Town,Mityana ,Urban,A,Camusat,Patrick Kinyera,Faridah Nantege,0.5594983,31.3928283,,
605565,Rwimi,Fort Portal   ,Urban,B,Camusat,Stephen Rwabwogo,Faridah Nantege,0.384991667,30.22960167,,
606121,Buwate,Luwero ,Urban,B,Netis,Benbridge Mulongo,William Bwire,0.404598677,32.62002355,,
605567,Ruhaama,Kabale  ,Urban,A,Camusat,Denis Masaba,Faridah Nantege,-0.9927933,30.3292567,,
606124,Debeza,Mityana ,Urban,C,Camusat,Patrick Kinyera,Faridah Nantege,0.550198333,31.416275,,
605569,Kanoni,Masaka ,Urban,B,Camusat,M Patrick Kalibbala,Faridah Nantege,0.18279642,31.91040988,,
605568,Kibooba,Mukono ,Urban,A,Netis,Samuel Naseke,William Bwire,0.4109967,32.7628717,,
605574,Adyel,Lira ,Rural,B,I-Engineering,Muhamood Kyongo,Allan Kavuma,2.255860033,32.90261118,,
605570,Kasenyi,Kampala West ,Urban,B,Camusat,Christopher Alituha,Faridah Nantege,0.055136667,32.511385,,
605571,Carol_House,Kampala North,Urban,B,I-Engineering,Joash Lubwama,Allan Kavuma,0.32505854,32.57376071,,
605572,Amka_Road,Kampala South ,Urban,B,Netis,Salim Kinene,William Bwire,0.3175716,32.6367399,,
605573,Makerere_PMC,Kampala North,Urban,B,I-Engineering,Joash Lubwama,Allan Kavuma,0.3269885,32.5669714,,
605583,mparangasi,Hoima  ,Rural,C,Camusat,Stephen Rwabwogo,Faridah Nantege,1.47534,31.45995167,,
605575,Steve_Hostel,Kampala North,Urban,B,I-Engineering,Joash Lubwama,Allan Kavuma,0.36629813,32.56051109,,
605576,Kikyusa,Luwero ,Urban,C,I-Engineering,Robert Otim,Allan Kavuma,0.83855595,32.64457315,,
605577,HBTowers,Kampala South ,Urban,B,Netis,Salim Kinene,William Bwire,0.313171667,32.57717,,
605578,BiraaroEstate_Kitint,Kampala South ,Urban,B,Netis,Salim Kinene,William Bwire,0.31318,32.6350677,,
605579,Mpala,Kampala West ,Urban,B,Camusat,Christopher Alituha,Faridah Nantege,0.106241667,32.51061167,,
605580,Kireka_Caravan,Kampala East  ,Urban,B,Netis,Benbridge Mulongo,William Bwire,0.347885,32.650375,,
605581,Wobulenzi Town,Luwero ,Urban,B,I-Engineering,Robert Otim,Allan Kavuma,0.717661667,32.52954167,,
605582,KawempeTula,Kampala North,Urban,B,I-Engineering,Joash Lubwama,Allan Kavuma,0.36359721,32.56557564,,
605585,kachungiro,Hoima  ,Rural,B,Camusat,Stephen Rwabwogo,Faridah Nantege,1.350611667,31.40167667,,
605584,Katosi,Mukono ,Urban,C,Netis,Samuel Naseke,William Bwire,0.160893333,32.79764667,,
605587,Kiziranfumbi,Hoima  ,Rural,C,I-Engineering,Latima Musoke,Allan Kavuma,1.333233333,31.20450667,,
605856,Seguku,Kampala West ,Urban,B,Camusat,Christopher Alituha,Faridah Nantege,0.225448333,32.54832167,,
605588,Tororo_Osukuru,Mbale  ,Rural,A,Netis,Jude Musana,William Bwire,0.671361667,34.19085333,,
605591,Buseruka,Hoima  ,Rural,C,I-Engineering,Latima Musoke,Allan Kavuma,1.545776667,31.13875667,,
605589,Nsozibiri,Luwero ,Urban,C,I-Engineering,Robert Otim,Allan Kavuma,0.79739338,32.49160395,,
605590,Mukono_Ggulu,Mukono ,Urban,A,Netis,Samuel Naseke,William Bwire,0.354659267,32.75754203,,
605600,Kitgum-Matidi,Gulu ,Rural,B,I-Engineering,Moses Kaganda,Allan Kavuma,3.268578333,33.04948167,,
605592,Mutai,Mukono ,Urban,C,Netis,Emmanuel Kafuko,William Bwire,0.543406667,33.220855,,
605593,Nabitende,Jinja ,Urban,A,Netis,Emmanuel Kafuko,William Bwire,0.771553333,33.46544,,
605594,Gadumire,Jinja ,Urban,C,Netis,Emmanuel Kafuko,William Bwire,1.119866667,33.51872833,,
605595,Jehta_Mansions,Kampala South ,Urban,B,Netis,Salim Kinene,William Bwire,0.311628333,32.580075,,
605596,MalcomX,Kampala East  ,Urban,B,Netis,Benbridge Mulongo,William Bwire,0.3358167,32.5993084,,
605597,Lusiba,Mityana ,Urban,A,Camusat,Patrick Kinyera,Faridah Nantege,0.352906667,31.30380167,,
605598,Kitimbwa,Luwero ,Urban,B,Netis,Samuel Naseke,William Bwire,0.8453117,32.8883117,,
605599,Kasangati,Luwero ,Urban,B,Netis,Benbridge Mulongo,William Bwire,0.43059652,32.59951466,,
605604,Kapir,Soroti  ,Rural,B,Netis,Moses Wandera,William Bwire,1.65871,33.78157378,,
605601,Nabweru,Mityana ,Urban,B,Camusat,Patrick Kinyera,Faridah Nantege,0.35424781,32.54674598,,
605602,Bujagali,Mukono ,Urban,C,Netis,Emmanuel Kafuko,William Bwire,0.469923333,33.17882833,,
605603,Iganga_Market1,Jinja ,Urban,B,Netis,Emmanuel Kafuko,William Bwire,0.614072333,33.47831938,,
605606,Bwambara,Kabale  ,Urban,A,Camusat,Denis Masaba,Faridah Nantege,-0.600628333,29.80052333,,
605605,Masenge,Hoima  ,Urban,A,Camusat,Patrick Kinyera,Faridah Nantege,0.688538333,31.21914833,,
605609,Kyamuhunga,Mbarara ,Urban,B,Camusat,Thomasi Seruyange,Faridah Nantege,-0.4357556,30.1274784,,
605607,Nabingoola,Fort Portal   ,Urban,A,Camusat,Stephen Rwabwogo,Faridah Nantege,0.498175,31.17034,,
606183,Maya,Kampala West ,Urban,C,Camusat,M Patrick Kalibbala,Faridah Nantege,0.2117258,32.455773,,
605611,Kifunfu,Mbarara ,Urban,A,Camusat,Thomasi Seruyange,Faridah Nantege,-0.5823784,30.495303,,
606221,Lweza,Kampala West ,Urban,B,Camusat,Christopher Alituha,Faridah Nantege,0.214695,32.54880167,,
605617,Sipi,Mbale  ,Rural,C,Netis,Jude Musana,William Bwire,1.341838333,34.380375,,
605612,Clock Tower,Kampala South ,Urban,B,Netis,Salim Kinene,William Bwire,0.308173333,32.57684667,,
606113,Mabira_UTL_Share,Mukono ,Urban,C,Netis,Samuel Naseke,William Bwire,0.389275,33.01077667,,
605613,Nabulagala,Mityana ,Urban,B,Camusat,Christopher Alituha,Faridah Nantege,0.32136902,32.55725047,,
605614,Bugaya_Island,Mukono ,Urban,B,Netis,Samuel Naseke,William Bwire,0.054881667,33.27440667,,
605615,Lweserima,Mukono ,Urban,B,Netis,Samuel Naseke,William Bwire,0.257511667,33.237215,,
605616,Kalerwe,Kampala North,Urban,B,I-Engineering,Joash Lubwama,Allan Kavuma,0.3518162,32.57293927,,
605618,Kaharo,Kabale  ,Urban,A,Camusat,Denis Masaba,Faridah Nantege,-1.217925,30.10909667,,
605619,Kyanamukaka,Masaka ,Urban,B,Camusat,M Patrick Kalibbala,Faridah Nantege,-0.4564268,31.7539441,,
605620,Buhweju,Mbarara ,Urban,A,Camusat,Thomasi Seruyange,Faridah Nantege,-0.4358567,30.3094599,,
605621,Matete,Masaka ,Urban,C,Camusat,M Patrick Kalibbala,Faridah Nantege,-0.240325,31.4888433,,
605623,Nalweyo,Hoima  ,Rural,C,Camusat,Patrick Kinyera,Faridah Nantege,1.05328,31.31822,,
605622,Kamira,Luwero ,Urban,A,I-Engineering,Robert Otim,Allan Kavuma,1.01434872,32.61278826,,
605627,kaweweta,Kampala North,Rural,A,I-Engineering,Robert Otim,Allan Kavuma,1.21072418,32.18023525,,
605625,Mabale,Hoima  ,Urban,C,Camusat,Stephen Rwabwogo,Faridah Nantege,1.061023333,30.92603,,
605626,Mpeefu,Fort Portal   ,Urban,A,Camusat,Stephen Rwabwogo,Faridah Nantege,1.039231667,30.66951833,,
605629,Paicho-Cwero,Gulu ,Rural,B,I-Engineering,Moses Kaganda,Allan Kavuma,2.8977614,32.4545206,,
605628,Karugutu,Fort Portal   ,Urban,B,Camusat,Stephen Rwabwogo,Faridah Nantege,0.76755,30.3304,,
605631,Nyeihanga,Kabale  ,Urban,A,Camusat,Denis Masaba,Faridah Nantege,-0.6935922,30.4013778,,
605637,Amuru,Gulu ,Rural,B,I-Engineering,Moses Kaganda,Allan Kavuma,2.812533333,31.93460833,,
605632,Mpara,Fort Portal   ,Urban,B,Camusat,Stephen Rwabwogo,Faridah Nantege,0.36979,30.980715,,
605633,Kasitu,Fort Portal   ,Urban,C,Camusat,Stephen Rwabwogo,Faridah Nantege,0.8092883,30.156455,,
605634,Kichwamba,Fort Portal   ,Urban,C,Camusat,Stephen Rwabwogo,Faridah Nantege,0.7106165,30.1983101,,
605635,Hakibaale,Fort Portal   ,Urban,C,Camusat,Stephen Rwabwogo,Faridah Nantege,0.754328333,30.38539667,,
605636,Kasaba,Fort Portal   ,Urban,A,Camusat,Stephen Rwabwogo,Faridah Nantege,0.821628333,30.57445333,,
605638,Butale,Masaka ,Urban,A,Camusat,M Patrick Kalibbala,Faridah Nantege,-0.403545,31.64302,,
605639,Adwari,Lira ,Rural,B,I-Engineering,Muhamood Kyongo,Allan Kavuma,2.528845,33.17299,,
605640,Kanungu,Kabale  ,Urban,A,Camusat,Denis Masaba,Faridah Nantege,-0.8986983,29.8389817,,
605641,Ishongororo,Mbarara ,Urban,B,Camusat,Thomasi Seruyange,Faridah Nantege,0.014315,30.5368,,
606123,Ayavu_Rhino_Camp,Arua  ,Rural,C,I-Engineering,Innocent Ayiko,Allan Kavuma,3.01057772,31.38875234,,
605642,Zigoti,Mityana ,Urban,C,Camusat,Patrick Kinyera,Faridah Nantege,0.3890904,32.1502674,,
605643,Bubandi,Fort Portal   ,Urban,C,Camusat,Stephen Rwabwogo,Faridah Nantege,0.6426633,29.9798733,,
605647,Ntusi,Masaka ,Urban,B,Camusat,M Patrick Kalibbala,Faridah Nantege,0.063936,31.1936507,,
605644,Bukoma,Fort Portal   ,Urban,B,Camusat,Stephen Rwabwogo,Faridah Nantege,0.342363333,30.41355333,,
605645,Ruboona,Fort Portal   ,Urban,B,Camusat,Stephen Rwabwogo,Faridah Nantege,0.555253333,30.172395,,
605646,Madudu,Mityana ,Urban,B,Camusat,Patrick Kinyera,Faridah Nantege,0.719475,31.469205,,
605650,Makokoto,Hoima  ,Rural,B,Camusat,Patrick Kinyera,Faridah Nantege,0.715321667,31.86057333,,
605648,Kabamba,Fort Portal   ,Urban,A,Camusat,M Patrick Kalibbala,Faridah Nantege,0.264266667,31.17917833,,
605649,Bufunjo,Fort Portal   ,Urban,C,Camusat,Stephen Rwabwogo,Faridah Nantege,0.729881667,30.84072,,
605652,Rwentuha,Mbarara ,Urban,A,Camusat,Thomasi Seruyange,Faridah Nantege,-0.5706146,30.2791339,,
605651,Namutumba,Jinja ,Urban,A,Netis,Emmanuel Kafuko,William Bwire,0.833577833,33.68654822,,
605654,Mutolere,Kabale  ,Urban,B,Camusat,Denis Masaba,Faridah Nantege,-1.258575451,29.69236636,,
605653,Kalangalo,Mityana ,Urban,C,Camusat,Patrick Kinyera,Faridah Nantege,0.5653065,31.9850953,,
605655,Nteko,Kabale  ,Urban,A,Camusat,Denis Masaba,Faridah Nantege,-1.28765,29.745988,,
605855,Kakoba,Mbarara ,Urban,B,Camusat,Thomasi Seruyange,Faridah Nantege,-0.6070792,30.6660913,,
605657,Kabaraga,Kabale  ,Urban,B,Camusat,Denis Masaba,Faridah Nantege,-1.2490733,30.055005,,
605658,Butaleja_Site,Mbale  ,Rural,B,Netis,Jude Musana,William Bwire,0.896746667,33.96462667,,
605659,Oyam,Lira ,Rural,A,I-Engineering,Muhamood Kyongo,Allan Kavuma,2.3845444,32.5082209,,
605661,Isingiro,Mbarara ,Urban,A,Camusat,Thomasi Seruyange,Faridah Nantege,-0.839427738,30.81091465,,
605660,Masajja,Kampala West ,Urban,B,Camusat,Christopher Alituha,Faridah Nantege,0.268001667,32.57775667,,
605662,Buliisa,Hoima  ,Rural,A,I-Engineering,Latima Musoke,Allan Kavuma,2.11729,31.41187833,,
606089,Aromo,Lira ,Rural,B,I-Engineering,Muhamood Kyongo,Allan Kavuma,2.612475,32.82429333,,
605975,Bunagana,Kabale  ,Urban,C,Camusat,Denis Masaba,Faridah Nantege,-1.2942358,29.6020306,,
605664,Kigungu,Kampala West ,Urban,A,Camusat,Christopher Alituha,Faridah Nantege,0.0362401,32.42559108,,
605665,Entebbe_Town,Kampala West ,Urban,B,Camusat,Christopher Alituha,Faridah Nantege,0.061575,32.47209167,,
605666,Kasolwe,Mukono ,Urban,A,Netis,Samuel Naseke,William Bwire,1.143245,33.08630667,,
605668,Lecu,Arua  ,Rural,B,I-Engineering,Innocent Ayiko,Allan Kavuma,3.64434,31.830965,,
605672,Tororo_Town,Mbale  ,Rural,A,Netis,Jude Musana,William Bwire,0.692535,34.18071833,,
605669,Bugembe,Jinja ,Urban,A,Netis,Emmanuel Kafuko,William Bwire,0.467615,33.23837833,,
605670,Bulange,Mityana ,Urban,B,Camusat,Christopher Alituha,Faridah Nantege,0.31829417,32.55056374,,
605671,Martin_RD,Kampala North,Urban,B,I-Engineering,Joash Lubwama,Allan Kavuma,0.31591503,32.57057002,,
605676,Biiso,Hoima  ,Rural,C,I-Engineering,Latima Musoke,Allan Kavuma,1.759823333,31.41968,,
605673,Naguru,Kampala East  ,Urban,B,Netis,Benbridge Mulongo,William Bwire,0.3383531,32.6066803,,
605674,Marie_Hotel,Kampala North,Urban,B,I-Engineering,Joash Lubwama,Allan Kavuma,0.31393,32.57216,,
605675,Naalya,Kampala East  ,Urban,B,Netis,Benbridge Mulongo,William Bwire,0.3699433,32.6294667,,
605677,Kijungu,Hoima  ,Rural,B,Camusat,Stephen Rwabwogo,Faridah Nantege,1.424326667,31.35594167,,
606212,Loyoro,Soroti  ,Rural,C,Netis,Moses Wandera,William Bwire,3.333065,34.24227667,,
605680,Kalangala_Busanga,Masaka ,Urban,B,Camusat,M Patrick Kalibbala,Faridah Nantege,-0.317561667,32.17137667,,
605679,Arua_Park,Kampala North,Urban,B,I-Engineering,Joash Lubwama,Allan Kavuma,0.31537625,32.57491455,,
605686,Majanji,Jinja ,Rural,B,Netis,Emmanuel Kafuko,William Bwire,0.276496667,34.00116333,,
605681,Seeta_Town,Kampala East  ,Urban,A,Netis,Samuel Naseke,William Bwire,0.371710583,32.7119806,,
605682,Seeta_Bukerere,Kampala East  ,Urban,B,Netis,Samuel Naseke,William Bwire,0.392248883,32.70411267,,
605683,Namilyango,Kampala East  ,Urban,B,Netis,Benbridge Mulongo,William Bwire,0.35119355,32.72425583,,
605684,Kireka-Kamuli,Kampala East  ,Urban,B,Netis,Benbridge Mulongo,William Bwire,0.358546667,32.641975,,
605685,Banda,Kampala East  ,Urban,B,Netis,Benbridge Mulongo,William Bwire,0.3467367,32.641085,,
605687,Namayingo,Jinja ,Rural,A,Netis,Emmanuel Kafuko,William Bwire,0.359586667,33.86718,,
605698,Arua_Ediofe,Arua  ,Rural,A,I-Engineering,Innocent Ayiko,Allan Kavuma,3.01580681,30.89959967,,
605688,Bugadde,Jinja ,Urban,A,Netis,Emmanuel Kafuko,William Bwire,0.329998333,33.532715,,
605689,Wakawaka,Jinja ,Urban,C,Netis,Emmanuel Kafuko,William Bwire,0.349886667,33.704305,,
605690,Kigandalo,Jinja ,Urban,C,Netis,Emmanuel Kafuko,William Bwire,0.397506667,33.60253,,
605691,Kinawataka,Kampala South ,Urban,B,Netis,Salim Kinene,William Bwire,0.33109,32.63220333,,
605692,MidCity Kikuubo,Kampala North,Urban,B,I-Engineering,Joash Lubwama,Allan Kavuma,0.31385688,32.57521471,,
605696,Kirombe,Kampala South ,Urban,A,Netis,Salim Kinene,William Bwire,0.3083414,32.6556941,,
605697,Nakasero_Market,Kampala South ,Urban,B,Netis,Salim Kinene,William Bwire,0.311638333,32.57988667,,
605699,Nabumali,Mbale  ,Rural,A,Netis,Jude Musana,William Bwire,0.983113333,34.19165167,,
605702,Bubutu,Mbale  ,Rural,A,Netis,Jude Musana,William Bwire,0.822551667,34.31325,,
605700,Muyenga_Bukasa,Kampala South ,Urban,B,Netis,Salim Kinene,William Bwire,0.292826667,32.62948667,,
605701,NamugongoCOUshrine,Kampala East  ,Urban,A,Netis,Benbridge Mulongo,William Bwire,0.3993033,32.664075,,
605706,Sonso,Hoima  ,Rural,C,I-Engineering,Latima Musoke,Allan Kavuma,1.920425,31.42302333,,
605703,Royal Complex,Kampala South ,Urban,B,Netis,Salim Kinene,William Bwire,0.31149,32.57764333,,
605704,Kirumira Towers,Kampala South ,Urban,B,Netis,Salim Kinene,William Bwire,0.313595,32.57782,,
605705,Kidera,Mukono ,Urban,B,Netis,Samuel Naseke,William Bwire,1.333403333,32.99149833,,
605710,Mutunda,Lira ,Rural,C,I-Engineering,Latima Musoke,Allan Kavuma,2.05594,32.26139667,,
605708,Wamala,Mityana ,Urban,A,Camusat,Patrick Kinyera,Faridah Nantege,0.3866423,32.5294737,,
605709,Migade,Luwero ,Urban,B,I-Engineering,Robert Otim,Allan Kavuma,0.52571473,32.5182841,,
605715,Soroti_Town,Soroti  ,Rural,B,Netis,Moses Wandera,William Bwire,1.714840417,33.62221803,,
605711,Ivory_Plaza,Kampala South ,Urban,B,Netis,Salim Kinene,William Bwire,0.313771667,32.57755667,,
605713,Sekanyonyi,Mityana ,Urban,B,Camusat,Patrick Kinyera,Faridah Nantege,0.5220933,32.1355651,,
605714,Tudor_House,Kampala South ,Urban,B,Netis,Salim Kinene,William Bwire,0.284006667,32.60921167,,
605716,Sigulu Island,Jinja ,Rural,B,Netis,Emmanuel Kafuko,William Bwire,0.08768,33.84058,,
605718,Wadelai,Arua  ,Rural,C,I-Engineering,Innocent Ayiko,Allan Kavuma,2.72061,31.39215,,
605717,Kiseka_Market,Kampala North,Urban,B,I-Engineering,Joash Lubwama,Allan Kavuma,0.32071,32.57221,,
605719,Erussi,Arua  ,Rural,A,I-Engineering,Innocent Ayiko,Allan Kavuma,2.33561,31.12222,,
605720,Amach,Lira ,Rural,A,I-Engineering,Muhamood Kyongo,Allan Kavuma,2.17696,32.92178833,,
605721,Nyaravur,Arua  ,Rural,C,I-Engineering,Innocent Ayiko,Allan Kavuma,2.44276,31.18324,,
605723,Vurra,Arua  ,Rural,B,I-Engineering,Innocent Ayiko,Allan Kavuma,2.86407077,30.89093949,,
605722,Rwamwanja,Fort Portal   ,Urban,B,Camusat,Stephen Rwabwogo,Faridah Nantege,0.373435,30.67677333,,
605724,Omugo,Arua  ,Rural,C,I-Engineering,Innocent Ayiko,Allan Kavuma,3.2727,31.11458,,
605725,Arivu,Arua  ,Rural,B,I-Engineering,Innocent Ayiko,Allan Kavuma,2.8377443,30.9900455,,
605726,Nyero,Mbale  ,Rural,C,Netis,Moses Wandera,William Bwire,1.493701767,33.86618888,,
605727,Lango College,Lira ,Rural,B,I-Engineering,Muhamood Kyongo,Allan Kavuma,2.266921667,32.89262667,,
605728,Gulu_High,Gulu ,Rural,C,I-Engineering,Moses Kaganda,Allan Kavuma,2.7689129,32.276152,,
605730,Lodonga,Arua  ,Rural,B,I-Engineering,Innocent Ayiko,Allan Kavuma,3.419433333,31.118515,,
605732,Itojo,Kabale  ,Urban,C,Camusat,Denis Masaba,Faridah Nantege,-0.78372481,30.27421765,,
605731,Myanzi,Mityana ,Urban,A,Camusat,Patrick Kinyera,Faridah Nantege,0.4429733,31.8996583,,
605738,Mukongoro,Mbale  ,Rural,A,Netis,Moses Wandera,William Bwire,1.323809117,33.88352475,,
605733,Arya_Primary,Kampala East  ,Urban,A,Netis,Benbridge Mulongo,William Bwire,0.340176667,32.5948,,
605734,Kiwoko,Luwero ,Urban,B,I-Engineering,Robert Otim,Allan Kavuma,0.84291197,32.36129837,,
605736,Namboole_North,Kampala East  ,Urban,A,Netis,Benbridge Mulongo,William Bwire,0.348265,32.65928167,,
605735,Namboole_South,Kampala East  ,Urban,B,Netis,Benbridge Mulongo,William Bwire,0.346171667,32.658345,,
605737,Casements,Kampala South ,Urban,B,Netis,Salim Kinene,William Bwire,0.3170967,32.6129367,,
605452,Loro,Lira ,Rural,A,I-Engineering,Muhamood Kyongo,Allan Kavuma,2.2434318,32.5318241,,
605740,Mbarara Switch,Mbarara ,Urban,A,Camusat,Thomasi Seruyange,Faridah Nantege,-0.57865,30.683295,,
605741,Lwakhakha,Mbale  ,Rural,C,Netis,Jude Musana,William Bwire,0.80252,34.37956667,,
605742,lwamata,Hoima  ,Rural,A,Camusat,Patrick Kinyera,Faridah Nantege,0.829135,31.92095667,,
605748,Akokoro,Lira ,Rural,B,I-Engineering,Muhamood Kyongo,Allan Kavuma,1.6852021,32.3780268,,
605743,Nakasero Hill Road,Kampala East  ,Urban,B,Netis,Benbridge Mulongo,William Bwire,0.32903,32.577635,,
605744,Nakabago,Mukono ,Urban,B,Netis,Samuel Naseke,William Bwire,0.370138833,32.74835987,,
605745,Ngoma,Kampala North,Rural,B,I-Engineering,Robert Otim,Allan Kavuma,1.18787246,32.04941609,,
605746,Kabimbiri,Luwero ,Urban,A,Netis,Samuel Naseke,William Bwire,0.648625,32.84739,,
605747,Ntinda_Industrial_Ar,Kampala East  ,Urban,B,Netis,Benbridge Mulongo,William Bwire,0.337781,32.6219611,,
605750,Kalisizo Town,Masaka ,Urban,C,Camusat,M Patrick Kalibbala,Faridah Nantege,-0.532199889,31.6320214,,
605749,Kahunde,Hoima  ,Urban,A,Camusat,Stephen Rwabwogo,Faridah Nantege,0.91592,30.895125,,
605751,Kyabadaaza,Kampala West ,Urban,C,Camusat,M Patrick Kalibbala,Faridah Nantege,0.1090648,32.1824959,,
605759,Kibibi Kabasanda,Kampala West ,Urban,C,Camusat,M Patrick Kalibbala,Faridah Nantege,0.2382952,32.1708371,,
605752,Nazigo_site,Luwero ,Urban,C,Netis,Samuel Naseke,William Bwire,0.6510152,32.9936649,,
605753,Buwenge_Town,Mukono ,Urban,B,Netis,Samuel Naseke,William Bwire,0.643423333,33.17107167,,
605754,Lusaze,Mityana ,Urban,B,Camusat,Christopher Alituha,Faridah Nantege,0.32171877,32.54300926,,
605755,Bugolobi_Market,Kampala South ,Urban,B,Netis,Salim Kinene,William Bwire,0.3188684,32.6228192,,
605756,Kitayunjwa,Mukono ,Urban,C,Netis,Samuel Naseke,William Bwire,0.9031,33.12186,,
605757,Akamwesi_Nakawa,Kampala South ,Urban,B,Netis,Salim Kinene,William Bwire,0.3239299,32.6193932,,
605758,Masulita,Kampala North,Urban,C,I-Engineering,Robert Otim,Allan Kavuma,0.32464415,32.56028351,,
605760,Busia_Town,Jinja ,Rural,A,Netis,Emmanuel Kafuko,William Bwire,0.4659725,34.0921521,,
605762,Bufumbo,Mbale  ,Rural,B,Netis,Jude Musana,William Bwire,1.093518333,34.246795,,
605761,JinjaSS,Mukono ,Urban,B,Netis,Emmanuel Kafuko,William Bwire,0.43609,33.20689167,,
605763,Kadama,Mbale  ,Rural,B,Netis,Jude Musana,William Bwire,1.0165733,33.8872883,,
605764,Petta_Tororo,Mbale  ,Rural,B,Netis,Jude Musana,William Bwire,0.796011667,34.18832833,,
605765,Busano,Mbale  ,Rural,C,Netis,Jude Musana,William Bwire,0.98845,34.25448833,,
605767,Ntantamuke,Mbarara ,Urban,C,Camusat,Thomasi Seruyange,Faridah Nantege,-0.9012108,31.2157986,,
605770,Nyakashojwa,Kabale  ,Urban,C,Camusat,Denis Masaba,Faridah Nantege,-0.518652219,30.01972661,,
605768,KCC_Makindye,Kampala South ,Urban,B,Netis,Salim Kinene,William Bwire,0.285593333,32.58073167,,
605769,Hapuyo,Fort Portal   ,Urban,C,Camusat,Stephen Rwabwogo,Faridah Nantege,0.598718333,31.059985,Site decommissioned,
605771,Kitwe,Kabale  ,Urban,B,Camusat,Denis Masaba,Faridah Nantege,-0.9598317,30.4726617,,
